transID,payCardID,payCardBank,payCardName,payCardSex,payCardBirthDate,corridorID,corridorName,direction,tapInStops,tapInStopsName,tapInStopsLat,tapInStopsLon,stopStartSeq,tapInTime,tapOutStops,tapOutStopsName,tapOutStopsLat,tapOutStopsLon,stopEndSeq,tapOutTime,payAmount
BJZB877Z7Z35HO,3561410000000000.0,dki,"Dr. Janet Nashiruddin, M.Ak",M,2010,4,Pulo Gadung 2 - Tosari,1,P00167,Pemuda Rawamangun,-6.193488,106.89165,12,2023-04-06 06:47:00,P00127,Layur,-6.193539,106.89909,13.0,4/6/2023 7:10,3500.0
GEXP076U8U17WZ,347728000000000.0,emoney,Balamantri Rahayu,M,2002,JAK.28,Kp. Rambutan - Taman Wiladatika,1,B04633P,Sekolah Islam PB Soedirman,-6.314293,106.86298,27,2023-04-06 05:51:00,B00865P,Jln. Ar Ridho,-6.308148,106.86935,30.0,4/6/2023 6:34,0.0
WPCM184Y9H79KO,377105000000000.0,emoney,Dian Mustofa,F,1993,B13,,1,B02192P,Mall Metropolitan,-6.247861,106.99215,6,2023-04-06 06:59:00,B00108P,Bandar Djakarta Bekasi,-6.227085,106.99683,9.0,4/6/2023 7:21,20000.0
FKJS190O6A79EH,4486490000000000.0,dki,"Cut Janet Suryatmi, M.Ak",M,1980,8K,Batusari - Grogol,1,B03637P,Sbr. Jln. Angsana Kemanggisan,-6.194813,106.78213,16,2023-04-06 05:32:00,B05914P,Yayasan Alkahfi Jakbar,-6.198896,106.76889,26.0,4/6/2023 6:27,3500.0
YFKL874V4N34PZ,30139400000000.0,bni,"dr. Mulyanto Pudjiastuti, M.Ak",F,1997,2Q,Gondangdia - Balai Kota,0,B00184P,BRI Menteng,-6.186792,106.83514,2,2023-04-06 05:36:00,B02755P,Perpustakaan Nasional,-6.180673,106.82643,5.0,4/6/2023 6:08,3500.0
OLAR110B2T94VQ,30394300000000.0,bni,"Dasa Prakasa, S.I.Kom",F,1993,JAK.117,Tanjung Priok - Tanah Merdeka,1,B04272P,Sbr. RPTRA Radar Pembangunan,-6.120126,106.89638,17,2023-04-06 06:56:00,B04818P,Simpang Gotong Royong 2,-6.125482,106.89331,21.0,4/6/2023 7:48,0.0
VNNO107H3Z64BZ,4974830000000000.0,dki,Elvina Hasanah,M,1966,9F,Rusun Tambora - Pluit,0,P00090,Jembatan Dua,-6.143279,106.79352,5,2023-04-06 05:37:00,P00170,Penjaringan,-6.126306,106.79203,7.0,4/6/2023 6:16,0.0
OEDD625Z9O75KU,3532180000000000.0,dki,"Perkasa Prakasa, M.Pd",F,2011,JAK.31,,0,B00042P,Andara Margasatwa 1,-6.313471,106.80369,55,2023-04-06 05:21:00,B01147P,Jln. H. Terin Pangkalan Jati,-6.327961,106.80054,56.0,4/6/2023 5:45,0.0
SEAF763A6F33UN,3537520000000000.0,dki,Ayu Wahyudin,F,2009,JAK.37,Cililitan - Condet via Kayu Manis,1,B05218P,Simpang Waru Tengah,-6.293301,106.85862,10,2023-04-06 05:25:00,B00405P,Gg. Ani Raya Condet,-6.266674,106.86054,37.0,4/6/2023 6:01,0.0
KJWS190V4B27IX,4.67715e+18,brizzi,"H. Xanana Santoso, S.Farm",M,2010,JAK.15,Bulak Turi - Tanjung Priok,0,B01327P,Jln. Lorong 5,-6.107716,106.8955,46,2023-04-06 05:23:00,B05728P,Term. Tj. Priok 1,-6.1098,106.88118,52.0,4/6/2023 5:48,0.0
WXNI170C3S27KL,4.15714e+18,brizzi,"R.A. Genta Hutagalung, S.E.",M,2007,JAK.110A,Rusun Marunda - Terminal Terpadu Pulo Gebang,0,B04369P,Sbr. SDN Rorotan 07,-6.146513,106.95644,35,2023-04-06 06:14:00,B06217P,Jln. Dahlia 10,-6.176465,106.94342,47.0,4/6/2023 7:01,0.0
TFCK730Y0H41GX,36856700000000.0,bni,"Intan Mardhiyah, S.Kom",F,1997,,,1,B01612P,Jln. Sunter Jaya VI,-6.160663,106.8727,40,2023-04-06 06:52:00,B03935P,Sbr. Kel. Sumur Batu,-6.164306,106.87132,45.0,4/6/2023 7:13,0.0
GVBS135V6J19SP,213191000000000.0,emoney,"Ajeng Kurniawan, M.Ak",M,1983,JAK.11,Tanah Abang - Kebayoran Lama,1,B01295P,Jln. KPBD,-6.223548,106.77843,9,2023-04-06 05:25:00,B04039P,Sbr. Masjid Annur Tanah Abang,-6.189941,106.80648,37.0,4/6/2023 5:58,0.0
ZRAF255K8R22FH,4035910000000000.0,dki,Kasiran Agustina,M,1968,JAK.02,Kampung Melayu - Duren Sawit,1,B05536P,STMT Trisakti 2,-6.231981,106.8777,24,2023-04-06 06:24:00,B05531P,STIS,-6.231063,106.86716,33.0,4/6/2023 7:19,0.0
OZBP360E3E05RN,587835000000.0,flazz,"Dt. Wisnu Maulana, S.Gz",M,1991,7C,Cibubur - BKN,1,P00016,BKN,-6.257751,106.87,0,2023-04-06 05:19:00,B00248P,Cibubur Junction,-6.368735,106.89366,2.0,4/6/2023 5:50,3500.0
ZOLQ749Z7U70UK,345703000000000.0,emoney,Ilyas Winarno,F,1996,,,0,B04330P,Sbr. SDN Cipedak 03,-6.349013,106.80931,7,2023-04-06 06:44:00,B04297P,Sbr. RS Zahirah,-6.335205,106.82312,18.0,4/6/2023 7:11,0.0
GRHY507Q7P45EE,4634370000000.0,online,"Rusman Rajasa, S.IP",F,2003,S22,Ciputat - Kampung Rambutan,1,B02068P,Komplek Uin,-6.308924,106.75601,18,2023-04-06 06:55:00,B02600P,Ps. Ciputat,-6.315627,106.74688,21.0,4/6/2023 7:30,3500.0
WJZZ627B1F26OM,4.55499e+18,brizzi,Sabri Megantara,F,1995,11C,Rusun Pinus Elok - Rusun Pulo Gebang,0,B04898P,Simpang Kampung Jembatan 2,-6.208426,106.93576,5,2023-04-06 06:59:00,B05201P,Simpang Tiga 2,-6.210983,106.93935,7.0,4/6/2023 7:19,0.0
PWJF087F1K26OA,4837650000000.0,online,dr. Citra Sitompul,F,1994,13C,Puri Beta - Dukuh Atas,1,P00136,Mayestik,-6.241921,106.79077,10,2023-04-06 05:44:00,P00043,Cipulir,-6.237818,106.76541,13.0,4/6/2023 6:06,3500.0
UEQH606M5L56YW,4.39827e+18,brizzi,Dariati Wijayanti,F,1982,JAK.30,Grogol - Meruya via Roxy,1,B03115P,RPTRA Taman Apel,-6.1717,106.78412,52,2023-04-06 06:54:00,B05704P,Term. Grogol,-6.166565,106.79025,54.0,4/6/2023 7:18,0.0
PZUJ334X6B09SW,4720230000000000.0,dki,Sabar Hidayanto,F,2005,JAK.11,Tanah Abang - Kebayoran Lama,1,B04380P,Sbr. Sekolah Bethel,-6.196189,106.80484,33,2023-04-06 05:54:00,B03163P,RS Pelni,-6.193033,106.80542,35.0,4/6/2023 6:44,0.0
FXNA392C9M05IP,30584200000000.0,bni,Bambang Aryani,M,1965,2A,Pulo Gadung - Rawa Buaya via Balai Kota,1,P00081,Indosiar,-6.163376,106.77514,5,2023-04-06 05:11:00,P00014,Bermis,-6.178203,106.89859,23.0,4/6/2023 6:01,3500.0
HFTB078D3G55EY,4.80454e+18,brizzi,Intan Tarihoran,F,2009,6V,Ragunan - Gelora Bung Karno,0,P00273,Warung Jati,-6.262364,106.82977,6,2023-04-06 06:26:00,P00079,Imigrasi,-6.256977,106.82808,7.0,4/6/2023 7:25,3500.0
VPJJ677Y6W96MK,5427150000000000.0,dki,Laila Pradipta,F,2002,JAK.35,Pangkalan Jati - Rawamangun,1,B00924P,Jln. Belanak III Rawamangun,-6.202063,106.89159,5,2023-04-06 05:06:00,B02633P,Ps. Klender,-6.212603,106.901141,13.0,4/6/2023 6:06,0.0
ITDM841U9X46HB,4034420000000000.0,dki,Zelaya Mayasari,M,1966,T11,Poris Plawad - Bundaran Senayan,0,B03430P,SDN Sukasari Enam 1,-6.189785,106.6419,7,2023-04-06 06:48:00,B00781P,Hotel Olive 1,-6.217195,106.61882,14.0,4/6/2023 7:11,3500.0
RXAK484U3G07VX,3511270000000000.0,dki,"KH. Laswi Sitorus, S.Ked",F,1988,4D,Pulo Gadung 2 - Kuningan,1,P00124,Latuharhary,-6.202761,106.82771,6,2023-04-06 05:43:00,P00167,Pemuda Rawamangun,-6.193488,106.89165,17.0,4/6/2023 6:36,3500.0
ICVJ525Z4Q77GO,567342000000.0,flazz,Yulia Winarsih,M,1962,9D,Pasar Minggu - Tanah Abang,0,P00261,Tosari,-6.196892,106.82309,8,2023-04-06 05:57:00,B02561P,Pancoran Barat 2,-6.241462,106.83808,26.0,4/6/2023 6:37,3500.0
NAQZ481R9U01NM,5545640000000000.0,dki,Karimah Nurdiyanti,M,1971,JAK.115,Term. Tj. Priok - Pegangsaan II IGI,0,B06583P,Sbr. Sekretariat Kelurahan Lagoa,-6.11791,106.90356,8,2023-04-06 05:29:00,B00828P,Jakarta Islamic Centre 1,-6.119721,106.91704,14.0,4/6/2023 6:28,0.0
YVWW047O2Y02HX,3572280000000000.0,dki,Bajragin Uyainah,M,2001,JAK.05,Semper - Rorotan,0,B02933P,Ponpes Baitul Quran Al Ikhwan 2,-6.12889,106.96502,3,2023-04-06 06:58:00,B03888P,Sbr. Kaliabang Rorotan,-6.127857,106.96285,4.0,4/6/2023 7:40,0.0
JIAW797N3R98IY,4473440000000.0,online,Cecep Prayoga,F,2012,M4,Pulo Gadung 2 - Dukuh Atas 2,1,P00188,Pramuka BPKP,-6.192192,106.87401,7,2023-04-06 06:59:00,P00269,Velodrome,-6.193468,106.8883,10.0,4/6/2023 7:29,3500.0
XKMD341H0U30IR,676378000000.0,flazz,Gandi Prastuti,F,1995,2,Pulo Gadung - Monas,0,P00062,Gambir 1,-6.174612,106.8304,15,2023-04-06 05:49:00,P00082,Istiqlal,-6.172252,106.83093,16.0,4/6/2023 6:43,3500.0
GDOR384K5J63GZ,2237370000000000.0,dki,Puti Zamira Wasita,F,1985,JAK.22,Dwikora - Penas Kalimalang,1,,Cawang Soetoyo 1,-6.24544,106.87548,0,2023-04-06 05:03:00,B01420P,Jln. Ngarbingan,-6.245333,106.88115,5.0,4/6/2023 5:39,0.0
QVAG741R9G23TJ,2243780000000000.0,dki,"Harsana Latupono, S.T.",F,1973,11P,Rusun Pondok Bambu - Walikota Jakarta Timur,0,B04648P,Sekolah PGRI Penggilingan,-6.216995,106.933775,19,2023-04-06 05:41:00,B06652P,Penggilingan 1,-6.214459,106.93945,20.0,4/6/2023 6:32,0.0
EIGY608Y2O12DI,349260000000000.0,emoney,Dr. Ikin Puspita,M,1988,,,1,P00051,Dukuh Atas,-6.205702,106.82223,0,2023-04-06 05:25:00,P00198,Puri Beta 2,-6.230532,106.72371,17.0,4/6/2023 6:24,3500.0
NBUM010F1M60DD,503888000000.0,flazz,R.A. Yance Rahayu,M,2009,JAK.48B,Stasiun Tebet - Kampung Melayu,0,B05772P,Tongtek,-6.21662,106.8628,3,2023-04-06 05:02:00,B05350P,SMPN 14,-6.214718,106.86485,9.0,4/6/2023 5:27,
GHFS274L7K17DV,374188000000000.0,emoney,Wani Hakim,F,2012,JAK.59,Rawamangun - Tanah Merah,1,B05723P,Term. Rawamangun,-6.198002,106.89099,0,2023-04-06 05:58:00,B01166P,Jln. Janur Indah XI,-6.155924,106.90801,26.0,4/6/2023 6:25,0.0
ISMW381M3O07XF,60478370871.0,flazz,Sutan Hendri Usamah,F,1984,S12,BSD Serpong - Fatmawati,1,B04581P,Sbr. Versailles,-6.308522,106.67339,3,2023-04-06 06:43:00,B05701P,Term. BSD,-6.306375,106.68536,4.0,4/6/2023 7:35,20000.0
IMGU109W3P95FF,3527080000000000.0,dki,Syahrini Susanti,M,1957,JAK.17,Senen - Pulo Gadung,1,B04377P,Sbr. Sekolah Anglo Rawasari,-6.186448,106.87326,32,2023-04-06 05:55:00,B05108P,Simpang Rawasari Ahmad Yani,-6.187726,106.87473,33.0,4/6/2023 6:46,0.0
YPWW615D4Z32SX,4122280000000000.0,dki,Agus Prastuti,F,1994,6T,Pasar Minggu - Velbak,1,B06727P,Ps. Cipete,-6.280261,106.807483,18,2023-04-06 05:37:00,B06648P,Poltangan 1,-6.294464,106.84131,33.0,4/6/2023 6:32,3500.0
IXON996N7H22VA,4831520000000000.0,dki,"Hani Halimah, M.Kom.",M,1995,JAK.45,Lebak Bulus - Ragunan,1,B04625P,Sekolah Cita Buana,-6.316189,106.81425,13,2023-04-06 06:58:00,B03962P,Sbr. Komplek Ddn 1,-6.303398,106.79896,33.0,4/6/2023 7:28,0.0
YITR836H3B18AS,5451490000000000.0,dki,Dartono Suryatmi,M,1982,B21,Bekasi Timur - Cawang,1,B00666P,GP Mall 2,-6.259474,107.01987,4,2023-04-06 05:34:00,P00023,Bulak Kapal 2,-6.251121,107.02366,8.0,4/6/2023 6:08,3500.0
NFRX932D8L62CC,180038000000000.0,emoney,Putri Tampubolon,M,1968,JAK.46,Pasar Minggu - Jagakarsa,1,B00485P,Gg. H. Yusuf Jati Pdang,-6.292902,106.8287,13,2023-04-06 05:06:00,B03060P,Puskesmas Pasar Minggu,-6.320616,106.82544,30.0,4/6/2023 5:48,0.0
PULU766D3U61DR,213174000000000.0,emoney,Bahuraksa Budiman,F,1995,13,Ciledug - Tendean,1,P00198,Puri Beta 2,-6.230532,106.72371,12,2023-04-06 05:19:00,P00034,CBD Ciledug,-6.223629,106.70904,13.0,4/6/2023 5:39,3500.0
FNAO904I4C91NX,6011290000000000.0,dki,dr. Cinthia Hutasoit,M,2011,S12,BSD Serpong - Fatmawati,1,B00229P,Carrefour Lebak Bulus,-6.287529,106.7768,2,2023-04-06 06:22:00,B05701P,Term. BSD,-6.306375,106.68536,4.0,4/6/2023 7:19,20000.0
AVBR646N6V40CK,4.51719e+18,brizzi,Tari Hidayanto,M,1993,11D,Pulo Gebang - Pulo Gadung 2 via PIK,0,B03405P,SDN Penggilingan,-6.205255,106.93004,13,2023-04-06 05:23:00,B02997P,Pulo Gadung,-6.183245,106.90868,33.0,4/6/2023 6:05,3500.0
CVVJ182G1M77EH,4173950000000000.0,dki,Oni Hartati,F,2009,,,1,B00122P,Baywalk 2,-6.110359,106.77961,3,2023-04-06 06:06:00,B00655P,Golf Bandar Kemayoran,-6.143748,106.85374,36.0,4/6/2023 6:57,0.0
NYYN713S0W43YD,370135000000000.0,emoney,Ami Setiawan,F,1967,JAK.06,Kampung Rambutan - Pondok Gede,1,B06787P,Gg. Warga Lubang Buaya,-6.287618,106.90573,46,2023-04-06 05:25:00,B01594P,Jln. SPG 7,-6.286157,106.9049,47.0,4/6/2023 6:07,0.0
UFCU257C9K53WT,180057000000000.0,emoney,"Clara Prasetyo, S.T.",M,1981,4C,TU Gas - Bundaran Senayan,0,B05003P,Simpang Matraman 2,-6.201601,106.85144,11,2023-04-06 06:41:00,B00604P,Gedung Wanita,-6.200921,106.83624,16.0,4/6/2023 7:23,3500.0
ERSW937C3I65AM,4913220000000000.0,dki,Tgk. Unjani Ardianto,F,1995,1T,Cibubur - Balai Kota,0,B00806P,IRTI,-6.1803,106.82618,15,2023-04-06 05:21:00,,Balai Kota 1,-6.180598,106.82847,16.0,4/6/2023 5:56,20000.0
VDDX748C3T23MM,341286000000000.0,emoney,Yessi Samosir,F,1986,5B,Stasiun Tebet - BNN,1,P00070,Gelanggang Remaja,-6.235445,106.86795,3,2023-04-06 06:33:00,P00015,Bidara Cina,-6.229724,106.86721,4.0,4/6/2023 6:58,3500.0
FORB537Z1E98YX,4.16147e+18,brizzi,Yoga Najmudin,F,1971,JAK.59,Rawamangun - Tanah Merah,1,B05602P,Taman Jogging Kelapa Gading 3,-6.161135,106.90477,23,2023-04-06 05:16:00,B06467P,Jln. Perjuangan Raya 1,-6.137019,106.90824,33.0,4/6/2023 6:00,0.0
XMLH532V8F87DF,213123000000000.0,emoney,"Drs. Putri Agustina, S.Ked",M,1991,9,Pinang Ranti - Pluit,0,P00089,Jembatan Besi,-6.152005,106.7949,21,2023-04-06 06:08:00,P00090,Jembatan Dua,-6.143279,106.79352,22.0,4/6/2023 7:06,3500.0
KAKI159H7W69NH,30409100000000.0,bni,R.A. Ajeng Anggriawan,M,2010,9F,Rusun Tambora - Pluit,1,P00181,Pluit,-6.115795,106.79037,0,2023-04-06 06:32:00,P00093,Jembatan Tiga Arah Utara,-6.133383,106.79267,2.0,4/6/2023 6:55,0.0
BFFR036F8C10XX,4.40658e+18,brizzi,Samiah Pranowo,F,1986,M6,,1,P00025,Bundaran HI,-6.193021,106.823,17,2023-04-06 06:41:00,P00010,Bank Indonesia Arah Utara,-6.182776,106.8228,19.0,4/6/2023 7:15,3500.0
QDCT493M1R47PP,4667380000000000.0,dki,Mustika Sihombing,F,1994,D32,Cinere - Bundaran Senayan,1,B06645P,Kantor Lurah Gandul,-6.34007,106.79381,2,2023-04-06 06:59:00,,,,,,,20000.0
HFSN835E9R26FI,30017600000000.0,bni,Cahyo Laksmiwati,F,1997,2F,Rusun Cakung Barat - Pulo Gadung,1,B06184P,Gg. H Sayuti I,-6.212751,106.92367,9,2023-04-06 05:44:00,B06185P,Sbr. Jln. Anggrek Raya,-6.205181,106.92273,11.0,4/6/2023 6:26,0.0
BOCQ321A6J36JS,5108030000000000.0,dki,"Puti Ira Riyanti, M.TI.",F,1983,9F,Rusun Tambora - Pluit,0,B03295P,Rusun Tambora,-6.147327,106.798676,0,2023-04-06 05:24:00,P00090,Jembatan Dua,-6.143279,106.79352,5.0,4/6/2023 6:22,0.0
SZOM911I2R71YF,30466200000000.0,bni,T. Galih Hassanah,F,1979,JAK.15,Bulak Turi - Tanjung Priok,0,B01042P,Jln. Duku Gg. Mantang,-6.112126,106.90832,38,2023-04-06 05:47:00,B01326P,Jln. Lorong 4,-6.107701,106.89492,47.0,4/6/2023 6:43,0.0
DBFZ321G8Y06ZM,4830770000000000.0,dki,Opan Wahyudin,M,1970,JAK.30,Grogol - Meruya via Roxy,0,B05561P,Superindo Meruya Ilir,-6.197636,106.74562,46,2023-04-06 05:14:00,B04256P,Sbr. Puskesmas Meruya Utara,-6.199776,106.74153,50.0,4/6/2023 6:11,0.0
IFHF688G1O05IV,4.39766e+18,brizzi,Jaswadi Maulana,F,2009,JAK.46,Pasar Minggu - Jagakarsa,1,B03060P,Puskesmas Pasar Minggu,-6.320616,106.82544,30,2023-04-06 06:49:00,,Sbr. Yayasan Al Azhar Syuhada,-6.326612,106.8207,34.0,4/6/2023 7:33,0.0
VPND423V3M33ST,4355820000000000.0,dki,Karsa Situmorang,M,2009,8K,Batusari - Grogol,1,B01036P,Jln. Delima V,-6.175306,106.78362,8,2023-04-06 05:06:00,B05276P,SMAN 65,-6.200842,106.76904,25.0,4/6/2023 5:54,3500.0
WUJN077J6F68QF,343155000000000.0,emoney,"Nasim Pratama, M.Farm",M,1996,JAK.115,Term. Tj. Priok - Pegangsaan II IGI,0,B06586P,Jln. Mahoni Koja,-6.11847,106.91334,12,2023-04-06 05:44:00,B03137P,RS Gading Pluit,-6.166419,106.91558,35.0,4/6/2023 6:40,0.0
UCGP207A1Z55RG,6559800000000000.0,dki,Banawa Uwais,F,2000,2,Pulo Gadung - Monas,0,P00082,Istiqlal,-6.172252,106.83093,16,2023-04-06 06:48:00,P00161,Pecenongan,-6.16771,106.82819,18.0,4/6/2023 7:22,3500.0
AXED585M1C13HO,567012000000.0,flazz,"Sutan Galuh Megantara, M.Farm",M,1986,,,0,P00018,BNN Arah Barat,-6.24651,106.87318,9,2023-04-06 05:09:00,P00070,Gelanggang Remaja,-6.235445,106.86795,12.0,4/6/2023 5:57,3500.0
RKHQ849F1M79OB,6569460000000000.0,dki,drg. Adinata Farida,M,1967,JAK.49,Lebak Bulus - Cipulir,1,B03408P,SDN Pesanggrahan 10,-6.259714,106.75688,34,2023-04-06 05:53:00,B02679P,Ps. Sayur Cipulir,-6.237807,106.7674,54.0,4/6/2023 6:38,0.0
IQTV470R0N37CQ,676111000000.0,flazz,"Cut Nilam Saefullah, S.IP",M,1968,1K,Cibubur Junction - Blok M,1,B00226P,Buperta Cibubur,-6.370321,106.89628,10,2023-04-06 06:28:00,B00248P,Cibubur Junction,-6.368735,106.89366,11.0,4/6/2023 7:05,20000.0
NLIM490A9K49HI,379477000000000.0,emoney,"Wardi Rajasa, S.IP",F,2003,6Q,Dukuh Atas - Casablanca via Epicentrum Raya,0,,Halimun 1,-6.205233,106.8335,17,2023-04-06 06:01:00,B02503P,Museum Proklamasi,-6.200007,106.83113,21.0,4/6/2023 6:55,3500.0
GMDB107Z1T46UF,30210200000000.0,bni,"Genta Nuraini, S.Pd",M,1981,JAK.53,Grogol - Pos Pengumben via Slipi,0,B04036P,Sbr. Masjid Almukmin Kemanggisan,-6.188208,106.79356,15,2023-04-06 06:03:00,B01152P,Jln. Harun II Sukabumi Utara,-6.20364,106.77662,37.0,4/6/2023 6:53,0.0
YHRJ877C5K44VO,4.92176e+18,brizzi,Yani Nurdiyanti,F,1979,BW9,Monas - Pantai Indah Kapuk,0,B00390P,Gambir 3,-6.178796,106.83095,1,2023-04-06 05:17:00,B00197P,Buddha Tzu Chi,-6.107998,106.73942,3.0,4/6/2023 5:59,0.0
MQUM310E1P20BP,30396500000000.0,bni,Dina Gunarto,F,2008,JAK.21,Cililitan - Dwikora,1,B01505P,Jln. Plk II Cililitan Besar,-6.265021,106.87468,25,2023-04-06 06:07:00,B00255P,Cililitan Besar 1,-6.263567,106.86709,30.0,4/6/2023 7:00,0.0
NEBT600C3J54ZR,345324000000000.0,emoney,Ika Habibi,F,1995,8,Lebak Bulus - Pasar Baru via Tomang,0,P00209,RS Tarakan,-6.171146,106.81011,21,2023-04-06 05:46:00,P00147,Pasar Baru,-6.166129,106.83483,25.0,4/6/2023 6:15,3500.0
ORBX990H5X33HZ,6011170000000000.0,dki,Farhunnisa Wulandari,F,1972,8C,Kebayoran Lama - Tanah Abang,1,B01638P,Jln. Taman Jatibaru Timur,-6.182778,106.8129,3,2023-04-06 05:20:00,B02882P,PLN Senayan,-6.216832,106.79325,24.0,4/6/2023 6:10,3500.0
SYGC109T6V86KC,2292480000000000.0,dki,Martaka Adriansyah,F,1981,8K,Batusari - Grogol,1,B03637P,Sbr. Jln. Angsana Kemanggisan,-6.194813,106.78213,16,2023-04-06 06:19:00,B01411P,Jln. Musyawarah Panjang Arteri,-6.200859,106.76922,23.0,4/6/2023 6:50,3500.0
QPKK919X7S44XX,180040000000000.0,emoney,"Ir. Kamila Dongoran, S.Kom",M,1949,4,Pulo Gadung 2 - Tosari,0,P00188,Pramuka BPKP,-6.192192,106.87401,8,2023-04-06 05:20:00,P00077,Halimun,-6.205137,106.83338,14.0,4/6/2023 5:43,3500.0
EVPS098W3J80EL,30419900000000.0,bni,Diah Yuniar,F,1991,12A,Pelabuhan Kaliadem - Kota,0,B01751P,Jembatan Kota Intan,-6.132329,106.81055,17,2023-04-06 05:38:00,P00013,Kota,-6.13679,106.8149,19.0,4/6/2023 6:27,3500.0
FGVF218V8J17GT,60414485361.0,flazz,Radika Kuswandari,M,1992,JAK.18,Kalibata - Kuningan,1,B01667P,Jln. Tebet Barat Dalam VIII,-6.241241,106.84754,36,2023-04-06 06:39:00,,,,,,,0.0
JUJS152E3Q03VY,3566840000000000.0,dki,Kanda Astuti,F,1987,JAK.58,Cilincing - Rorotan,0,B00435P,Gg. Damai I Rorotan,-6.150802,106.95604,64,2023-04-06 05:58:00,B01942P,Kel. Rorotan,-6.151739,106.95584,65.0,4/6/2023 6:25,0.0
RJYI889T0T45MC,6538170000000000.0,dki,Panca Samosir,F,2000,JAK.43C,Sarana Jaya - Tebet Eco Park (TEP) - Stasiun Cawang,1,B06269P,Jln. Tebet Barat Raya,-6.233919,106.85064,5,2023-04-06 05:02:00,B06277P,Jln.Tebet Barat V,-6.233937,106.8477,6.0,4/6/2023 5:25,0.0
QMFJ805B0N94FJ,6564460000000000.0,dki,"Yance Padmasari, S.Psi",F,1980,JAK.30,,0,B00607P,Gelanggang Remaja Grogol Petamburan,-6.178373,106.78094,17,2023-04-06 06:24:00,B02467P,Mitra 10 Meruya Ilir,-6.196032,106.75605,40.0,4/6/2023 6:54,0.0
TBUV909B9Q15CH,4837540000000000.0,dki,Edi Siregar,M,1981,1,Blok M - Kota,1,P00183,Polda Metro Jaya,-6.221094,106.81028,16,2023-04-06 05:34:00,,Blok M,-6.243312,106.80175,21.0,4/6/2023 6:31,3500.0
MFML849N2I56YQ,501802000000.0,flazz,Syahrini Santoso,M,1987,JAK.37,Cililitan - Condet via Kayu Manis,1,B05122P,Simpang Raya Tengah H. Ali,-6.292515,106.85951,12,2023-04-06 05:09:00,B03498P,Sbr. Gg. Al Mawaddah Tengah,-6.287951,106.86292,20.0,4/6/2023 5:34,0.0
LWQB285K9T68TO,3516270000000000.0,dki,Icha Maryati,M,1971,5,Matraman Baru - Ancol,0,P00092,Jembatan Merah,-6.146731,106.83427,11,2023-04-06 05:25:00,P00003,Ancol,-6.127563,106.83039,14.0,4/6/2023 5:59,3500.0
RXWZ464Z4U53VQ,4.13205e+18,brizzi,Salimah Prastuti,M,1991,S12,BSD Serpong - Fatmawati,0,B05852P,Versailles,-6.308405,106.67367,2,2023-04-06 05:47:00,B05488P,St. MRT Fatmawati,-6.292589,106.7936,3.0,4/6/2023 6:27,20000.0
HCQY773Q2M39BL,4574230000000000.0,dki,"Cut Clara Prasetyo, S.H.",M,1979,1,Blok M - Kota,1,P00294,Sawah Besar Arah Selatan,-6.157368,106.818661,6,2023-04-06 05:11:00,P00026,Bundaran Senayan,-6.227869,106.80094,18.0,4/6/2023 6:11,3500.0
UASM182K3D94EF,3574900000000000.0,dki,Tira Siregar,M,1998,1M,Meruya - Blok M,1,B00856P,Jln. Anggrek Srengseng,-6.19818,106.75616,31,2023-04-06 05:56:00,B03261P,Ruko Taman Kb. Jeruk,-6.197388,106.74818,37.0,4/6/2023 6:27,3500.0
OPDC143H2Z99DM,4044890000000.0,online,Bambang Putra,M,2001,M1H,Tanah Abang - St. Gondangdia,0,B05667P,Tanah Abang AURI,-6.186064,106.81536,10,2023-04-06 05:37:00,P00056,Explorer Tanah Abang,-6.184305,106.81158,13.0,4/6/2023 6:03,
ETBV733L6L06SD,3526750000000000.0,dki,Ghaliyati Kusumo,F,1991,,,0,B06045P,Galeri Niaga Mediterania 2,-6.116486,106.77142,12,2023-04-06 06:00:00,B02489P,Muara Angke,-6.110009,106.77471,14.0,4/6/2023 6:32,3500.0
RJPS823H9V80EG,4890890000000000.0,dki,Sabar Yuniar,M,1993,12C,Rusun Waduk Pluit - Penjaringan,1,B06295P,Gg. VIII Muara Baru,-6.122869,106.80402,3,2023-04-06 05:08:00,B03299P,Rusun Waduk Pluit,-6.111456,106.80022,6.0,4/6/2023 6:06,0.0
WLVU341F6U25AB,4969160000000.0,online,"Drs. Ana Gunawan, M.Ak",F,2009,JAK.03,Lebak Bulus - Andara,0,B00027P,Al Izhar Pondok Labu 2,-6.311504,106.79104,17,2023-04-06 06:27:00,B04628P,Sekolah Darussalam H. Ipin,-6.311351,106.79271,18.0,4/6/2023 6:56,0.0
XNIL246U2V22WS,3568600000000000.0,dki,drg. Titin Maheswara,M,1980,JAK.17,Senen - Pulo Gadung,0,B04955P,Simpang Kramat Jaya Baru,-6.185568,106.85239,40,2023-04-06 06:29:00,B02098P,KUA Johar Baru,-6.180784,106.84778,45.0,4/6/2023 6:55,0.0
YCMT392W3M03HX,213141000000000.0,emoney,"dr. Cemani Januar, M.Farm",F,2005,6U,Blok M - Pasar Minggu,0,P00053,Duren Tiga,-6.252377,106.82697,16,2023-04-06 06:45:00,B06633P,Sbr. Kel. Ps. Minggu,-6.285514,106.84058,27.0,4/6/2023 7:40,3500.0
VMRE046H8P80ZU,4.84765e+18,brizzi,Empluk Siregar,F,2003,BW9,Monas - Pantai Indah Kapuk,0,B06048P,Food Street,-6.092201,106.74388,5,2023-04-06 05:28:00,B06907P,PIK2 Pantjoran,-6.089429,106.741383,6.0,4/6/2023 6:19,0.0
VQCE204Z0V08GF,4.58364e+18,brizzi,"Vanesa Lazuardi, M.Pd",F,1991,L13E,Puri Beta - Kuningan (Express),0,P00197,Puri Beta 1,-6.230596,106.72602,1,2023-04-06 05:50:00,P00119,Kuningan Barat,-6.23725,106.82794,5.0,4/6/2023 6:22,3500.0
TYZL345L2W22QH,6586010000000000.0,dki,Taufan Wasita,F,1969,R1A,Pantai Maju - Kota,1,B01507P,Jln. Pluit Mas Selatan 1,-6.135231,106.792691,8,2023-04-06 05:44:00,B02885P,PLTU Pluit,-6.112358,106.78608,16.0,4/6/2023 6:13,3500.0
PCMG213R1Q13EX,379019000000000.0,emoney,Narji Manullang,M,1989,S31,Bintaro - Fatmawati,1,B01184P,Jln. Kaimun Jaya,-6.292537,106.78705,2,2023-04-06 06:43:00,B00229P,Carrefour Lebak Bulus,-6.287529,106.7768,4.0,4/6/2023 7:17,20000.0
FVBB579P4A13SI,6565050000000000.0,dki,"H. Cemeti Widiastuti, S.T.",M,1989,R1A,Pantai Maju - Kota,1,B00030P,Al Mukhlisin,-6.128569,106.792084,11,2023-04-06 05:02:00,B00917P,Jln. BB Utara,-6.120279,106.79409,12.0,4/6/2023 5:51,3500.0
SRXO802K2M98QI,4.98893e+18,brizzi,Tgk. Yunita Sitompul,M,1989,8A,Jelambar - Juanda,0,P00209,RS Tarakan,-6.171146,106.81011,4,2023-04-06 06:37:00,,,,,,,3500.0
TRIL921Z3F05LT,3514280000000000.0,dki,"Puti Zalindra Aryani, S.Pt",M,1992,JAK.06,Kampung Rambutan - Pondok Gede,1,B02780P,Pertigaan Pagelarang 2,-6.303794,106.91755,29,2023-04-06 06:26:00,B06786P,Gg. Rukun Lubang Buaya,-6.290369,106.906529,45.0,4/6/2023 7:14,0.0
DGTF701D9Z24PA,3579210000000000.0,dki,Kardi Suryatmi,M,1992,7E,Kampung Rambutan - Ragunan,1,B01405P,Jln. Muara 1,-6.304063,106.85061,10,2023-04-06 06:54:00,B00865P,Jln. Ar Ridho,-6.308148,106.86935,14.0,4/6/2023 7:23,3500.0
NWCR844E5S28FV,4507260000000.0,online,"Nadia Situmorang, M.Ak",M,1983,1P,Senen - Blok M,1,B00326P,Dukuh Atas 4,-6.204819,106.8221,12,2023-04-06 05:40:00,B02477P,Monas 3,-6.178787,106.82304,22.0,4/6/2023 6:12,3500.0
MCEU718G5Y80HF,38905900000000.0,bni,Umi Hassanah,F,1983,12C,Rusun Waduk Pluit - Penjaringan,1,B06313P,Sbr. Gg. Marlina,-6.117521,106.80326,4,2023-04-06 05:15:00,B03299P,Rusun Waduk Pluit,-6.111456,106.80022,6.0,4/6/2023 5:45,0.0
JRSU116C1T08GA,4724200000000.0,online,Cut Ade Siregar,F,1975,JAK.112,Terminal Tanah Merah - Pulo Gadung,1,B00764P,Haris Hotel Kelapa Gading,-6.157718,106.91053,24,2023-04-06 06:17:00,B05672P,Tanah Merah,-6.142042,106.90862,31.0,4/6/2023 7:11,0.0
VAAP800A5G66FW,4.51437e+18,brizzi,Eli Wastuti,F,2004,6H,Senen - Lebak Bulus,0,B05245P,SMA Budi Utomo,-6.167046,106.838,5,2023-04-06 05:10:00,B04506P,Sbr. St. Gambir,-6.177188,106.83139,9.0,4/6/2023 6:06,3500.0
ZWTW945P3A82XK,2273150000000000.0,dki,"Dt. Kenes Permadi, M.Pd",M,1957,JAK.26,Rawamangun - Duren Sawit,1,B05742P,Tip Top Rawamangun,-6.201153,106.88606,7,2023-04-06 06:22:00,B04302P,Sbr. Rsup Persahabatan,-6.204183,106.88599,9.0,4/6/2023 6:42,0.0
KUFS104J7I53IR,213177000000000.0,emoney,Drs. Faizah Maheswara,F,2005,S21,Ciputat - CSW,0,,Pool PPD Ciputat,-6.331231,106.74851,0,2023-04-06 05:53:00,B02903P,Polsek Ciputat 1,-6.310368,106.75502,4.0,4/6/2023 6:27,3500.0
NSDJ675Y3U93KW,345149000000000.0,emoney,Maimunah Nasyiah,F,1971,JAK.45,,0,B05613P,Taman Lestari Indah,-6.296499,106.77774,6,2023-04-06 06:57:00,B04405P,Sbr. Semar,-6.310513,106.8045,32.0,4/6/2023 7:26,0.0
IQOO656F9M00BX,676207000000.0,flazz,Indra Farida,M,1977,5C,PGC - Juanda,0,P00253,Tegalan,-6.203101,106.85715,10,2023-04-06 05:58:00,P00213,Salemba Carolus,-6.196781,106.85102,12.0,4/6/2023 6:21,3500.0
UVWL548S2K87FM,4166360000000000.0,dki,Gamani Puspita,F,2009,1H,Tanah Abang - Stasiun Gondangdia,1,B01638P,Jln. Taman Jatibaru Timur,-6.182778,106.8129,2,2023-04-06 06:24:00,B04101P,Sbr. MNC Center,-6.182744,106.83084,10.0,4/6/2023 7:17,3500.0
JNZC223H5U20PK,583552000000.0,flazz,Wardi Putra,F,2000,6D,Stasiun Tebet - Karet via Underpass,0,B00222P,Bundaran Senayan 2,-6.227877,106.80068,1,2023-04-06 06:26:00,B00378P,FX Sudirman,-6.225532,106.8037,2.0,4/6/2023 7:06,3500.0
ZYCI940P5A11NL,6502270000000000.0,dki,Karimah Mandasari,F,2000,JAK.26,Rawamangun - Duren Sawit,1,B02073P,Komplek Wijaya Kusuma 4,-6.229031,106.90495,45,2023-04-06 05:20:00,B04476P,Sbr. SMPN 195,-6.230919,106.90988,48.0,4/6/2023 6:06,0.0
WXND649J0U70ND,3518480000000000.0,dki,Ir. Wakiman Lailasari,M,1994,6D,Stasiun Tebet - Karet via Underpass,1,B00611P,Gelora Bung Karno 1,-6.224642,106.8056,15,2023-04-06 06:02:00,B05544P,Summitmas,-6.225826,106.80402,16.0,4/6/2023 6:42,3500.0
DHOE404D0Y33KF,180033000000000.0,emoney,Bakiono Wulandari,M,1976,,,1,B02092P,KPP Pratama Tanah Abang,-6.197731,106.8144,6,2023-04-06 05:15:00,B00358P,Flyover Kampung Melayu,-6.22506,106.86483,23.0,4/6/2023 6:02,3500.0
NCDM980J6T31RH,6529700000000000.0,dki,Adhiarja Oktaviani,M,1986,11D,Pulo Gebang - Pulo Gadung 2 via PIK,1,B04238P,Sbr. Pospol PIK Penggilingan,-6.203474,106.93242,16,2023-04-06 05:17:00,P00270,Walikota Jakarta Timur,-6.21254,106.94537,30.0,4/6/2023 6:03,3500.0
BOTG146D7E53LU,3591760000000000.0,dki,drg. Wawan Utama,M,1990,JAK.28,Kp. Rambutan - Taman Wiladatika,0,B04612P,Sekolah Al Wahyu Cibubur,-6.365855,106.88733,53,2023-04-06 05:52:00,B03507P,Sbr. Gg. Baronang Cibubur,-6.362495,106.88432,57.0,4/6/2023 6:40,0.0
YAMN589C9A92IA,4063500000000000.0,dki,Mulya Puspasari,M,1977,1F,,0,P00071,Gelora Bung Karno,-6.224217,106.8058,5,2023-04-06 05:03:00,P00026,Bundaran Senayan,-6.227869,106.80094,6.0,4/6/2023 5:25,3500.0
TXJW583Q7D79OJ,4878500000000.0,online,Daliman Wastuti,F,1984,13,Ciledug - Tendean,0,P00034,CBD Ciledug,-6.223629,106.70904,0,2023-04-06 05:49:00,P00001,Adam Malik,-6.236466,106.74786,2.0,4/6/2023 6:47,3500.0
NYSQ780B2D47QK,180087000000000.0,emoney,Chelsea Nugroho,F,1991,M11,Pulo Gebang - Pulo Gadung 2,1,P00020,Buaran,-6.215132,106.91768,3,2023-04-06 06:37:00,,Perumnas Klender,-6.216689,106.93054,5.0,4/6/2023 7:32,3500.0
HBEI539Y0B68EM,676193000000.0,flazz,Luthfi Sihotang,F,1998,D21,Universitas Indonesia - Lebak Bulus,0,B00824P,Jaha,-6.292428,106.81245,18,2023-04-06 06:08:00,B01184P,Jln. Kaimun Jaya,-6.292537,106.78705,24.0,4/6/2023 6:49,3500.0
PCDO846T3Y22ZJ,180085000000000.0,emoney,Sari Megantara,M,1984,6U,Blok M - Pasar Minggu,0,B05265P,SMAN 28,-6.286109,106.83318,23,2023-04-06 05:30:00,B06633P,Sbr. Kel. Ps. Minggu,-6.285514,106.84058,27.0,4/6/2023 5:55,3500.0
AMTB155H1W62RH,6501620000000000.0,dki,"dr. Kamidin Melani, M.Ak",F,1999,,,1,B01622P,Jln. Swadaya Raya,-6.228375,106.91677,27,2023-04-06 06:45:00,B05148P,Simpang Serdang Swadaya Raya 2,-6.227633,106.91484,28.0,4/6/2023 7:23,0.0
QAZN941K1M05KF,3592450000000000.0,dki,"KH. Gaman Pradipta, S.E.I",M,1978,4F,Pinang Ranti - Pulo Gadung,1,B00886P,Jln. Balai Rakyat,-6.224651,106.8991,15,2023-04-06 05:00:00,B02667P,Ps. Pondok Gede,-6.285665,106.91158,38.0,4/6/2023 5:47,3500.0
CYEH616E7Q33VI,3508170000000000.0,dki,Ulya Maulana,M,2010,10B,Rusun Cipinang Besar Selatan - Penas Kalimalang,1,B06573P,SPBU Jln. DI Panjaitan,-6.233702,106.8766,1,2023-04-06 05:05:00,B03270P,Rusun Cipinang Besar Selatan,-6.231625,106.88288,6.0,4/6/2023 5:51,0.0
CZWG369V4V54AF,639083000000.0,flazz,Lalita Winarsih,M,1998,13D,Puri Beta - Ragunan,0,P00024,Buncit Indah,-6.274333,106.83029,17,2023-04-06 05:29:00,P00228,SMK 57,-6.290967,106.82365,20.0,4/6/2023 5:54,3500.0
RMPC648D6P32TH,3548160000000000.0,dki,Rika Nugroho,F,1981,JAK.99,Term. Pulo Gadung - Lampiri,1,B04304P,Sbr. Rukan Radin Inten II,-6.235496,106.92272,13,2023-04-06 06:46:00,B06720P,Sbr. Al-Wathoniyah,-6.184075,106.923562,26.0,4/6/2023 7:18,0.0
XWBV128I9Y89MR,4720840000000000.0,dki,"Tgk. Karna Firmansyah, S.E.I",F,1996,1,Blok M - Kota,0,P00004,ASEAN,-6.239889,106.79897,1,2023-04-06 05:40:00,P00295,Mangga Besar Arah Utara,-6.15325,106.817536,16.0,4/6/2023 6:11,3500.0
RNUS634V3A34VB,5408100000000000.0,dki,Unggul Maheswara,M,1980,10K,Tanjung Priok - Senen via Taman BMW,1,B03157P,RS Mitra Keluarga Kemayoran,-6.152358,106.85802,22,2023-04-06 06:44:00,B03645P,Sbr. Jln. Bak Air 1,-6.115009,106.87222,37.0,4/6/2023 7:23,3500.0
TAUV720M5H05AL,180053000000000.0,emoney,Satya Tarihoran,M,1979,1M,Meruya - Blok M,0,B05418P,SPBU Srengseng Raya,-6.218822,106.76037,19,2023-04-06 06:50:00,B01842P,Kartini Hospital 2,-6.237876,106.76942,30.0,4/6/2023 7:27,3500.0
NBLL408S7R70JG,30220700000000.0,bni,Cager Rahmawati,M,1980,M4,Pulo Gadung 2 - Dukuh Atas 2,1,P00193,Pulo Gadung 2,-6.183098,106.90872,0,2023-04-06 06:53:00,P00152,Pasar Genjing,-6.194446,106.86092,11.0,4/6/2023 7:45,3500.0
RTHY570H5U42JR,30192700000000.0,bni,Amalia Wibowo,M,1983,D21,Universitas Indonesia - Lebak Bulus,0,B01809P,Kampus IISIP,-6.323176,106.83487,6,2023-04-06 06:56:00,,,,,,,3500.0
VUHJ970H2M79EG,676226000000.0,flazz,Gamblang Laksmiwati,F,2000,JAK.20,Cawang UKI - Lubang Buaya,0,,Pos Masuk Halim Squadron 1,-6.270578,106.87774,24,2023-04-06 06:34:00,B05751P,TK Angkasa 8,-6.285191,106.90125,39.0,4/6/2023 7:27,0.0
DKWH662H5D76LJ,371807000000000.0,emoney,Cemeti Rajasa,F,1984,1H,Tanah Abang - Stasiun Gondangdia,0,P00056,Explorer Tanah Abang,-6.184305,106.81158,13,2023-04-06 06:29:00,B00825P,Jak Lingko Tanah Abang 2,-6.183885,106.81165,17.0,4/6/2023 6:53,3500.0
ALHC845D5E79JH,4102250000000000.0,dki,Hilda Habibi,F,1995,JAK.43C,Sarana Jaya - Tebet Eco Park (TEP) - Stasiun Cawang,1,B06273P,Tebet Eco Park Utara,-6.237129,106.85238,3,2023-04-06 05:27:00,B06269P,Jln. Tebet Barat Raya,-6.233919,106.85064,5.0,4/6/2023 6:02,0.0
BMBS476B7O70MY,3540970000000000.0,dki,Cici Napitupulu,M,1996,10,Tanjung Priok - PGC 2,0,P00168,Penas Kalimalang,-6.23907,106.878,17,2023-04-06 06:59:00,P00178,PGC 2,-6.2619,106.8657,21.0,4/6/2023 7:24,3500.0
QDUC031T3X71FK,3549810000000000.0,dki,Dalima Prabowo,F,2011,JAK.29,Tanjung Priok - Sukapura,0,B05943P,Gg. Pancong,-6.146605,106.92363,3,2023-04-06 05:36:00,B05145P,Simpang Semangka Mahoni,-6.116007,106.91315,31.0,4/6/2023 6:34,0.0
RFZZ270S6G28KJ,4222880000000000.0,dki,"Tgk. Kamaria Safitri, M.Pd",M,2008,3H,Jelambar - Kota,0,P00176,Petojo,-6.169984,106.81698,2,2023-04-06 05:01:00,P00013,Kota,-6.13679,106.8149,10.0,4/6/2023 5:33,
VMVE600U3T43GY,3530990000000000.0,dki,KH. Pranawa Suryatmi,M,1977,JAK.11,Tanah Abang - Kebayoran Lama,0,B00825P,Jak Lingko Tanah Abang 2,-6.183885,106.81165,1,2023-04-06 05:32:00,B04618P,Sekolah Bethel KS Tubun,-6.196195,106.80497,16.0,4/6/2023 6:29,0.0
JMRD201N9J92YG,60438980397.0,flazz,Atmaja Wasita,F,2006,JAK.88,Terminal Tanjung Priok - Ancol Barat,0,B05966P,Jembatan Muara Bahari,-6.1274,106.84813,12,2023-04-06 06:53:00,B05978P,Jln. Ancol Barat 1,-6.1294,106.82006,30.0,4/6/2023 7:44,0.0
ENWJ418Y5D94WP,6011700000000000.0,dki,Aurora Hutasoit,M,1993,1B,Stasiun Palmerah - Tosari,1,P00104,Karet Sudirman,-6.212457,106.82003,2,2023-04-06 05:11:00,P00217,Senayan JCC Arah Barat,-6.213906,106.80841,3.0,4/6/2023 5:38,3500.0
SCJF062A7L24KR,3554490000000000.0,dki,Tantri Hariyah,M,2000,6Q,Dukuh Atas - Casablanca via Epicentrum Raya,0,B03396P,Kota Kasablanka,-6.224688,106.84246,3,2023-04-06 06:08:00,B00115P,UPT. LLHD 2,-6.225501,106.83489,9.0,4/6/2023 7:01,3500.0
IUPH316M0K90HB,502027000000.0,flazz,"Ir. Argono Marbun, S.I.Kom",F,2008,7C,Cibubur - BKN,1,P00016,BKN,-6.257751,106.87,0,2023-04-06 06:01:00,B00226P,Buperta Cibubur,-6.370321,106.89628,1.0,4/6/2023 6:56,3500.0
YYGV253C7D23NA,3584700000000000.0,dki,dr. Ajiono Siregar,M,1966,3C,Rusun Kapuk Muara - Penjaringan,0,B03277P,Rusun Kapuk Muara,-6.135667,106.76299,0,2023-04-06 05:24:00,P00170,Penjaringan,-6.126306,106.79203,1.0,4/6/2023 6:02,0.0
EZSZ585Z8H26IU,30174800000000.0,bni,"R.M. Opan Mahendra, M.Farm",F,2003,6N,Ragunan - Blok M via Kemang,1,B04582P,Sbr. Villa Ampera,-6.273031,106.81562,13,2023-04-06 05:19:00,B04925P,Simpang Kemang Selatan 2,-6.274106,106.82045,14.0,4/6/2023 6:15,3500.0
JMPV383N9H39HL,6538840000000000.0,dki,Talia Maheswara,M,1974,1P,Senen - Blok M,0,B05637P,Taman Patimura,-6.232872,106.80081,30,2023-04-06 06:00:00,B06577P,Blok M Jalur 2,-6.243369,106.80188,32.0,4/6/2023 6:37,3500.0
NOBY661A7L40KY,4.22097e+18,brizzi,Ir. Timbul Hariyah,F,1996,1E,Pondok Labu - Blok M,1,B03174P,RS Setia Mitra 1,-6.281325,106.7964,12,2023-04-06 05:13:00,B05898P,Wisma Subud,-6.28496,106.79596,13.0,4/6/2023 6:00,3500.0
LVCF347T3S88YY,4556880000000000.0,dki,Sarah Lailasari,F,1992,7Q,,0,B01403P,Jln. Minyak Raya,-6.253372,106.83813,21,2023-04-06 05:27:00,,,,,,,3500.0
UOXH190Q1J58GL,60451757490.0,flazz,Ajiono Farida,F,2010,1R,Senen - Tanah Abang,0,B00720P,Gunung Agung,-6.181755,106.83717,1,2023-04-06 06:28:00,B01787P,JPO Blok G,-6.188861,106.81135,11.0,4/6/2023 7:09,3500.0
CDQW509Q7Y12OP,676391000000.0,flazz,Carla Pangestu,M,1985,JAK.85,Bintara - Cipinang Indah,1,B02791P,Perum Pondok Kopi Indah 1,-6.221642,106.94136,36,2023-04-06 05:23:00,,Perum Pondok Kopi Indah,-6.221281,106.94164,37.0,4/6/2023 6:23,0.0
AQFS462O8A41WF,5254760000000000.0,dki,"Hasna Pradana, M.TI.",F,2005,JAK.21,Cililitan - Dwikora,0,B03591P,Sbr. Gereja Oikumene,-6.262305,106.88696,19,2023-04-06 06:07:00,B02295P,Masjid Darul Huda 1,-6.249332,106.89109,29.0,4/6/2023 7:06,0.0
VDQW414W6F27UV,180084000000000.0,emoney,Intan Hasanah,M,1981,,Stasiun Tebet - BNN,1,P00031,Cawang Otista,-6.243607,106.86876,2,2023-04-06 05:10:00,B01804P,Kampung Melayu Besar 2,-6.225314,106.86292,6.0,4/6/2023 6:07,3500.0
MNUR815D7F89OA,3552930000000000.0,dki,"Karsa Wasita, S.Farm",M,1997,3B,Rusun Flamboyan - Cengkareng,0,B03272P,Rusun Flamboyan,-6.131366,106.72427,0,2023-04-06 06:10:00,B04902P,Simpang Kapuk Cengkareng,-6.1343,106.73051,3.0,4/6/2023 7:10,0.0
LIKB712H6R86GA,2550310000000000.0,dki,Kania Mustofa,M,1978,S11,BSD - Jelambar,1,B03414P,SDN Pondok Jagung 2,-6.256133,106.65144,14,2023-04-06 05:41:00,B03123P,RS Asshobirin 2,-6.258481,106.65199,15.0,4/6/2023 6:30,3500.0
CNZC605I1Y47BJ,2573820000000000.0,dki,"dr. Cinta Pradipta, S.E.I",F,1999,JAK.26,Rawamangun - Duren Sawit,0,B01009P,Jln. Cipinang Muara III,-6.220029,106.8995,16,2023-04-06 05:13:00,B04775P,Simpang Cipinang Kebembem,-6.211837,106.88474,37.0,4/6/2023 6:10,0.0
EFYC764C5H27FH,6582530000000000.0,dki,Jefri Puspasari,F,2001,JAK.27,,0,B01574P,Jln. Sentosa Tambun Rengas,-6.176636,106.96234,27,2023-04-06 06:13:00,B04478P,Sbr. SMPN 200,-6.15813,106.955908,36.0,4/6/2023 7:07,0.0
KPXH586M8I76UH,3525650000000000.0,dki,Martani Ardianto,M,1996,12H,Rusun Penjaringan - Penjaringan,0,B03285P,Rusun Penjaringan,-6.130702,106.79487,0,2023-04-06 05:38:00,P00170,Penjaringan,-6.126306,106.79203,1.0,4/6/2023 6:13,3500.0
HRTT533U9Q69BJ,213125000000000.0,emoney,Sarah Kusmawati,M,1988,M5,Matraman Baru - Ancol,0,P00148,Pasar Baru Timur,-6.162272,106.83811,11,2023-04-06 05:18:00,P00076,Gunung Sahari Mangga Dua,-6.136817,106.83237,13.0,4/6/2023 5:53,3500.0
YFUS360X4W25CX,4192610000000.0,online,Cager Saptono,M,1982,10,Tanjung Priok - PGC 2,0,P00274,Yos Sudarso Kodamar,-6.162043,106.88169,6,2023-04-06 06:11:00,P00168,Penas Kalimalang,-6.23907,106.878,17.0,4/6/2023 7:05,3500.0
PKRC999Q6Z64ZW,3579140000000000.0,dki,"Warsita Halimah, M.TI.",M,1975,1A,Pantai Maju - Balai Kota,1,B05401P,SPBG Jakpro,-6.117747,106.79188,19,2023-04-06 06:23:00,B02887P,Pluit Karang Indah,-6.117576,106.78311,20.0,4/6/2023 7:02,3500.0
OPGH984Z9C28GH,3510000000000000.0,dki,Zulfa Hakim,M,1991,5F,Kampung Melayu - Tanah Abang,1,B02196P,Mall Thamrin City,-6.194341,106.81453,4,2023-04-06 05:33:00,,,,,,,3500.0
BAUI463W6V17MX,180017000000000.0,emoney,Ridwan Lestari,M,1965,JAK.24,Senen - Pulo Gadung via Kelapa Gading,0,B04647P,Sekolah Penabur Gunung Sahari,-6.170053,106.84024,49,2023-04-06 05:13:00,B05725P,Term. Senen,-6.17356,106.84213,50.0,4/6/2023 5:55,0.0
HOBH519Y2B23OT,4.71293e+18,brizzi,Gaiman Najmudin,M,2008,9A,PGC 2 - Grogol 2,0,P00018,BNN Arah Barat,-6.24651,106.87318,3,2023-04-06 05:59:00,P00297,BNN LRT,-6.245863,106.871143,4.0,4/6/2023 6:56,3500.0
QEGJ800D2O14NG,30399400000000.0,bni,"dr. Patricia Rahimah, S.Kom",F,2005,JAK.75,Cililitan - Kp. Pulo,1,B03610P,Sbr. Grha Intirub,-6.265218,106.8758,13,2023-04-06 06:11:00,B02806P,Perumahan EKS Yon Angkub,-6.264169,106.87008,16.0,4/6/2023 6:42,0.0
VCKO612A4W40JL,4957420000000000.0,dki,"dr. Bella Saptono, M.Kom.",M,1989,9N,Pinang Ranti - Pramuka,1,P00064,Garuda Taman Mini,-6.290154,106.88116,1,2023-04-06 06:47:00,P00179,Pinang Ranti,-6.291075,106.88634,2.0,4/6/2023 7:19,3500.0
OERV779R8F47KO,30439800000000.0,bni,Sakura Putra,F,1965,8M,S. Parman - Tanah Abang,0,B00999P,Jln. Cideng Timur I,-6.169801,106.81103,8,2023-04-06 05:00:00,B02692P,Ps. Tomas,-6.179192,106.81306,12.0,4/6/2023 5:26,3500.0
HEYF722I1H68VS,4142110000000000.0,dki,"R. Pandu Wibowo, S.E.",M,1985,9D,Pasar Minggu - Tanah Abang,1,B02830P,Pharmin,-6.182988,106.81306,43,2023-04-06 06:08:00,B00159P,Blok F,-6.188552,106.81249,45.0,4/6/2023 6:41,3500.0
KJHI245K4Y18CS,213157000000000.0,emoney,Kezia Nainggolan,F,2011,JAK.72,Kampung Rambutan - Pasar Rebo via Poncol,0,B01950P,Kel. Susukan,-6.312595,106.87518,30,2023-04-06 06:30:00,B02145P,Litbang Depnaker Jaktim,-6.31213,106.86264,48.0,4/6/2023 7:15,0.0
ERZP101T2P45FJ,4509890000000.0,online,Halim Natsir,F,2004,10H,Tanjung Priok - Blok M,1,P00176,Petojo,-6.169984,106.81698,10,2023-04-06 06:02:00,P00248,Tanjung Priok,-6.10959,106.88214,18.0,4/6/2023 6:52,3500.0
LYWR482W3I25BC,4930410000000.0,online,Farhunnisa Prasetyo,M,1989,11B,Rusun Rawa Bebek - Penggilingan,1,B06654P,Walikota Jakarta Timur 1,-6.212327,106.94515,1,2023-04-06 05:40:00,B03291P,Rusun Rawa Bebek,-6.196241,106.9658,2.0,4/6/2023 6:06,0.0
JENU457R5K47GG,4971370000000.0,online,Mitra Hartati,M,1995,JAK.02,Kampung Melayu - Duren Sawit,1,B05825P,Univ. Borobudur 2,-6.241463,106.89608,11,2023-04-06 06:43:00,B01238P,Jln. Kb. Nanas Selatan II,-6.231955,106.87124,30.0,4/6/2023 7:40,0.0
ERRQ052Z1B79GS,4533950000000000.0,dki,"Cut Salimah Sudiati, S.E.I",F,1994,12,Tanjung Priok - Pluit,1,P00146,Pangeran Jayakarta,-6.137611,106.81792,6,2023-04-06 05:10:00,P00076,Gunung Sahari Mangga Dua,-6.136817,106.83237,8.0,4/6/2023 6:04,3500.0
JDSD497O4G97RB,4414650000000000.0,dki,Daruna Suryono,F,1990,JAK.19,Pinang Ranti - Kampung Rambutan,0,B03080P,Rawa Binong Lubang Buaya,-6.297294,106.903,25,2023-04-06 05:09:00,B02782P,Pertigaan Rukun Setu,-6.307559,106.91562,38.0,4/6/2023 5:36,0.0
YKBB289R8N23KA,30257900000000.0,bni,"Danu Yuliarti, S.Psi",F,2000,12B,Pluit - Senen,0,P00092,Jembatan Merah,-6.146731,106.83427,21,2023-04-06 05:07:00,P00148,Pasar Baru Timur,-6.162272,106.83811,22.0,4/6/2023 5:41,3500.0
FOIJ289L3H89AA,4.97367e+18,brizzi,Tina Saptono,F,1985,JAK.51,Taman Kota - Budi Luhur,0,B04836P,Simpang H. Muchtar Kejaksaan Raya,-6.225407,106.73791,8,2023-04-06 06:14:00,B01848P,Kavling DKI Meruya Selatan,-6.21501,106.73194,14.0,4/6/2023 6:43,0.0
MCNM026T5Y14TS,180058000000000.0,emoney,"Elisa Januar, S.E.",F,1982,4B,Stasiun Manggarai - UI,0,B01888P,Kec. Tebet 1,-6.23204,106.84534,10,2023-04-06 06:22:00,B05881P,Wijaya Kusuma,-6.333008,106.83567,42.0,4/6/2023 7:20,3500.0
QEOG357W4E95XX,30121200000000.0,bni,"Ana Haryanto, M.TI.",F,1993,JAK.08,Roxy - Benhil,0,B01638P,Jln. Taman Jatibaru Timur,-6.182778,106.8129,10,2023-04-06 05:27:00,,KPP Pratama Tanah Abang,-6.197731,106.8144,23.0,4/6/2023 5:54,0.0
HEVD825D0L51YR,5481820000000000.0,dki,Asman Wacana,F,1988,5B,Stasiun Tebet - BNN,0,P00297,BNN LRT,-6.245863,106.871143,12,2023-04-06 06:41:00,P00018,BNN Arah Barat,-6.24651,106.87318,13.0,4/6/2023 7:38,3500.0
EKDB930E8B65YE,3511150000000000.0,dki,Yunita Prakasa,F,1993,D31,Cinere - Kuningan,0,B02411P,Menara Duta,-6.208617,106.82986,14,2023-04-06 05:55:00,B04686P,Setiabudi Utara 2,-6.207513,106.8294,15.0,4/6/2023 6:46,20000.0
GWGA465A6Y39XF,30016300000000.0,bni,"Ganjaran Laksita, S.H.",F,2003,JAK.43B,Tongtek - Tebet Eco Park (TEP) - Cililitan,1,B06269P,Jln. Tebet Barat Raya,-6.233919,106.85064,22,2023-04-06 06:34:00,B01317P,Jln. Lapangan Ros III Bukit Duri,-6.22093,106.85398,37.0,4/6/2023 7:18,0.0
CLOH653F1I27UU,4.7957e+18,brizzi,R. Ina Susanti,F,2008,B13,Bekasi Barat - Blok M,0,P00011,Bekasi Barat,-6.250045,106.99167,4,2023-04-06 05:11:00,B05482P,St. MRT Asean 1,-6.23844,106.79858,10.0,4/6/2023 5:42,20000.0
LLJJ841I5Q24ZF,4738060000000000.0,dki,Chelsea Hakim,M,1985,S11,BSD - Jelambar,0,B05771P,Tol Kb. Jeruk 2,-6.189835,106.76681,24,2023-04-06 05:30:00,P00087,Jelambar,-6.166548,106.78651,26.0,4/6/2023 5:51,3500.0
VTVG079U8A71HD,503832000000.0,flazz,"Drs. Titin Nashiruddin, M.Kom.",M,1985,JAK.03,Lebak Bulus - Andara,0,B01493P,Jln. Pinang II Pondok Labu,-6.310414,106.79665,22,2023-04-06 06:31:00,B05950P,Jln. Andara Raya,-6.327861,106.80061,27.0,4/6/2023 7:31,0.0
RTTE940W8D94CQ,2716980000000000.0,dki,Heryanto Saefullah,F,1985,6Q,Dukuh Atas - Casablanca via Epicentrum Raya,0,B04549P,Sbr. The Wave,-6.214426,106.8363,11,2023-04-06 05:04:00,B06054P,Halimun 2,-6.20509,106.83357,23.0,4/6/2023 5:38,3500.0
QIUJ972W9S82HK,180006000000000.0,emoney,"R.A. Farah Fujiati, M.TI.",M,2009,11N,Rusun Cipinang Muara - Jatinegara,0,B00791P,Imigrasi Jaktim 1,-6.214787,106.88182,8,2023-04-06 05:58:00,B00920P,Jln. Bekasi Timur I Jatinegara,-6.215457,106.87083,13.0,4/6/2023 6:27,0.0
HSMI820U9C80ND,4766310000000.0,online,"Ulva Halim, M.Pd",F,1984,7,Kampung Rambutan - Bidara Cina,1,,Pasar Induk Kramat Jati,-6.294215,106.87203,12,2023-04-06 05:58:00,P00101,Kampung Rambutan,-6.309885,106.88216,16.0,4/6/2023 6:52,3500.0
RAFB511U0D70YD,213146000000000.0,emoney,Empluk Hidayanto,M,1988,JAK.80,Rawa Buaya - Rawa Kompeni,1,B02663P,Ps. Pisang Rawa Buaya,-6.156887,106.72783,45,2023-04-06 05:07:00,B02939P,Pool Blue Bird Puri 2,-6.160742,106.72685,47.0,4/6/2023 5:47,0.0
KLTY261H4N84JK,2238650000000000.0,dki,"Dt. Marwata Hariyah, M.Farm",M,1999,8A,Jelambar - Juanda,1,P00211,S Parman Podomoro City Arah Barat,-6.175587,106.79223,5,2023-04-06 06:29:00,,,,,,,3500.0
MWGF467O7Z63IU,4454840000000000.0,dki,Clara Wahyuni,M,1996,6B,Ragunan - MH Thamrin via Semanggi,1,P00228,SMK 57,-6.290967,106.82365,13,2023-04-06 06:19:00,P00199,Ragunan,-6.305769,106.81949,15.0,4/6/2023 7:11,3500.0
BONT743D9E28KF,30425400000000.0,bni,Cut Vanesa Zulaika,F,1987,8M,S. Parman - Tanah Abang,1,B01014P,Jln. Ciujung Cideng Barat,-6.176346,106.81197,5,2023-04-06 06:12:00,B05844P,Univ. Trisakti 2,-6.166868,106.79098,16.0,4/6/2023 7:01,3500.0
ANXY848I1H38FT,4793750000000000.0,dki,Iriana Thamrin,M,1959,12,Tanjung Priok - Pluit,0,P00271,Walikota Jakarta Utara Arah Selatan,-6.118845,106.89347,3,2023-04-06 06:23:00,P00131,Mangga Dua,-6.136148,106.82597,13.0,4/6/2023 6:48,3500.0
WICI374A2T84AM,3530190000000000.0,dki,Paris Rahmawati,M,1975,JAK.23,Senen - Pisangan Baru,0,B06431P,SDN Utan Kayu Selatan 23 Pagi,-6.203858,106.87078,37,2023-04-06 06:34:00,B05320P,SMKN 5,-6.212826,106.87364,41.0,4/6/2023 7:08,0.0
UNCV818K4T21EL,371390000000000.0,emoney,Radika Siregar,M,1980,JAK.41,Kampung Melayu - Pulo Gadung,0,B01502P,Jln. Pisangan Lama I,-6.214711,106.875,13,2023-04-06 06:43:00,,TK Tarakanita 5,-6.202111,106.88295,26.0,4/6/2023 7:27,0.0
OEJY503V4L16JB,502059000000.0,flazz,Paramita Mangunsong,F,1998,4,Pulo Gadung 2 - Tosari,1,P00189,Pramuka LIA,-6.192238,106.86858,7,2023-04-06 05:38:00,P00269,Velodrome,-6.193468,106.8883,11.0,4/6/2023 6:12,3500.0
RVRC181P9A59JL,378710000000000.0,emoney,"Atmaja Puspita, S.H.",F,2006,JAK.64,Lenteng Agung - Aseli,1,B06864P,Gg. Berdikari,-6.343622,106.833138,6,2023-04-06 06:56:00,B04311P,Sbr. Ruko Moh Kahfi II,-6.335886,106.82713,16.0,4/6/2023 7:23,0.0
ODNN183Y4T59IO,2642880000000000.0,dki,Yulia Aryani,M,1969,JAK.18,Kalibata - Kuningan,0,B02229P,Masjid Al Bakrie,-6.219141,106.83784,49,2023-04-06 06:27:00,,Jln. Kawi Guntur,-6.20973,106.8333,60.0,4/6/2023 7:22,0.0
QWVE136P6L33EH,5479700000000000.0,dki,"Soleh Tampubolon, M.M.",M,2011,JAK.14,Tanah Abang - Meruya,0,B00230P,Carrefour Meruya Ilir,-6.197521,106.75129,56,2023-04-06 05:37:00,B03247P,Ruko Meruya Ilir,-6.197437,106.75067,57.0,4/6/2023 6:35,0.0
YYIJ445U9F01YR,676141000000.0,flazz,Safina Winarsih,F,1993,5F,Kampung Melayu - Tanah Abang,0,B01838P,Karet Tengsin,-6.20698,106.81696,21,2023-04-06 06:05:00,B01974P,Kesatrian Kowal Cut Nyak Dhien,-6.194307,106.81436,24.0,4/6/2023 6:42,3500.0
YBTM631A7Y47RO,344033000000000.0,emoney,Drs. Ulva Samosir,M,1981,7B,Kampung Rambutan - Blok M,0,P00156,Pasar Kramat Jati,-6.268822,106.86663,20,2023-04-06 05:15:00,B03195P,RSIA Duren Tiga 1,-6.253592,106.8413,29.0,4/6/2023 5:59,3500.0
OQIY541W5C50CJ,3547180000000000.0,dki,Zizi Pradana,F,1989,JAK.34,Rawamangun - Klender,1,B04284P,Sbr. RS Islam Pondok Kopi,-6.220193,106.93904,35,2023-04-06 06:47:00,B05711P,Term. Klender,-6.221557,106.93248,42.0,4/6/2023 7:41,0.0
VLWK658I8N02XS,589645000000.0,flazz,Sari Hidayanto,M,1972,1F,Stasiun Palmerah - Bundaran Senayan,0,P00071,Gelora Bung Karno,-6.224217,106.8058,5,2023-04-06 05:28:00,P00026,Bundaran Senayan,-6.227869,106.80094,6.0,4/6/2023 6:20,3500.0
VTRL778N6M05WT,630488000000.0,flazz,"Kania Ramadan, S.Pd",F,1995,6H,Senen - Lebak Bulus,0,B05867P,Wahidin 2,-6.169193,106.83975,3,2023-04-06 06:20:00,B02423P,Menteng 2,-6.198706,106.82843,24.0,4/6/2023 6:59,3500.0
KDYE748F1T38DH,4741960000000000.0,dki,Rizki Gunarto,M,1975,1E,Pondok Labu - Blok M,1,B00684P,Graha Werdatama Pondok Labu,-6.309163,106.79461,20,2023-04-06 06:16:00,B01493P,Jln. Pinang II Pondok Labu,-6.310414,106.79665,22.0,4/6/2023 6:42,3500.0
NYPT962D0S90RM,4311120000000000.0,dki,Ibun Sitorus,F,1985,JAK.07,Tanah Abang - Grogol via Tawakal,1,B01787P,JPO Blok G,-6.188861,106.81135,30,2023-04-06 06:34:00,P00083,Jak Lingko Tanah Abang,-6.185496,106.81105,31.0,4/6/2023 7:29,0.0
QKCF744W6J78BV,4506180000000000.0,dki,Yuliana Halim,M,2002,7B,Kampung Rambutan - Blok M,1,B04678P,Senopati,-6.230687,106.80809,3,2023-04-06 05:29:00,B00865P,Jln. Ar Ridho,-6.308148,106.86935,45.0,4/6/2023 6:09,3500.0
NZQQ709O0S62OL,4113750000000000.0,dki,"Gantar Ardianto, M.Farm",F,1989,B11,Summarecon Bekasi - BNN,1,B01853P,Kayuringin 2,-6.245948,106.99247,3,2023-04-06 05:38:00,P00236,Summarecon Bekasi,-6.225566,107.00281,6.0,4/6/2023 6:24,3500.0
WKUL866O2O70DI,30487700000000.0,bni,Hilda Hardiansyah,M,1989,JAK.60,Kelapa Gading - Rusun Kemayoran,1,B01063P,Jln. Gading Ayu I,-6.148155,106.90987,35,2023-04-06 05:54:00,B02413P,Menara Kelapa Gading,-6.168901,106.91591,44.0,4/6/2023 6:50,0.0
DMFV714T1L58KZ,3525400000000000.0,dki,Carla Lazuardi,F,2006,13B,Puri Beta - Pancoran Barat,1,P00044,CSW 1,-6.23994,106.79843,5,2023-04-06 05:57:00,P00242,Swadarma,-6.23755,106.76065,11.0,4/6/2023 6:46,3500.0
STEJ928Z6F25GH,5587410000000000.0,dki,Winda Permadi,F,1995,,,0,P00222,Setiabudi Utara,-6.209189,106.830237,15,2023-04-06 06:22:00,P00073,GOR Sumantri,-6.221618,106.832245,18.0,4/6/2023 6:42,3500.0
XOJN187G8H26FO,213157000000000.0,emoney,"Ir. Dian Yuliarti, S.Ked",M,1966,JAK.38,Bulak Ringin - Kampung Rambutan,0,B05614P,Taman Mahoni,-6.340472,106.87479,10,2023-04-06 05:03:00,B03778P,Sbr. Jln. Mangga KDW,-6.332148,106.88178,17.0,4/6/2023 5:31,0.0
FPUL457T5F91KM,2292810000000000.0,dki,"KH. Teguh Prasetyo, M.Kom.",F,2007,6D,Stasiun Tebet - Karet via Underpass,1,B02873P,Plaza Sentral,-6.216247,106.81676,14,2023-04-06 05:29:00,B00221P,Bundaran Senayan 1,-6.227445,106.80187,17.0,4/6/2023 5:50,3500.0
YFCQ361C6U74TJ,38873000000000.0,bni,Okta Waskita,F,1982,14,Jakarta International Stadium - Senen,1,,Utan Panjang,-6.169541,106.85209,4,2023-04-06 06:24:00,B04789P,Simpang Danau Sunter Utara Barat,-6.139853,106.85663,11.0,4/6/2023 6:44,3500.0
NXKK486Y5O84FD,4785250000000000.0,dki,Sutan Karsana Hidayanto,M,1971,JAK.30,Grogol - Meruya via Roxy,0,B04456P,Sbr. SMKN 60,-6.186045,106.7721,25,2023-04-06 06:50:00,B00230P,Carrefour Meruya Ilir,-6.197521,106.75129,43.0,4/6/2023 7:13,0.0
TMZK990C4H18IN,4.97898e+18,brizzi,Alambana Nababan,M,1959,M7,Kampung Rambutan - Monas,0,P00153,Pasar Induk Kramat Jati,-6.294215,106.87203,4,2023-04-06 06:30:00,P00143,Pancoran Barat Arah Barat,-6.241672,106.8372,15.0,4/6/2023 6:52,3500.0
FBFZ148W4F95FW,213164000000000.0,emoney,Luwes Oktaviani,F,1999,B14,Bekasi Barat - Kuningan,1,B03156P,RS Mitra Keluarga 2,-6.24088,106.99285,17,2023-04-06 05:20:00,P00236,Summarecon Bekasi,-6.225566,107.00281,19.0,4/6/2023 6:10,20000.0
IWZG853O8C04LP,4686840000000000.0,dki,"Zaenab Dongoran, S.Pt",F,2009,JAK.64,Lenteng Agung - Aseli,1,B04556P,Sbr. TK Kartika VIII -13,-6.345264,106.82746,2,2023-04-06 06:39:00,B03184P,RS Zahirah,-6.335452,106.82382,18.0,4/6/2023 7:04,0.0
FMGI686W8M39VR,4017460000000000.0,dki,Cinthia Lailasari,M,1976,JAK.26,Rawamangun - Duren Sawit,0,B02941P,Pool Hiba Utama 1,-6.206384,106.90269,24,2023-04-06 05:35:00,,Simpang Cipinang Kebembem,-6.211837,106.88474,37.0,4/6/2023 6:11,0.0
KXMB440O6S46CF,3599050000000000.0,dki,"Hardi Simanjuntak, S.H.",M,1969,,,1,B02840P,Pintu Air Menteng,-6.19598,106.83266,20,2023-04-06 06:41:00,B06053P,Selatan St. Gondangdia,-6.187059,106.8329,26.0,4/6/2023 7:17,3500.0
JVZE029N9K21DP,2421820000000000.0,dki,Tami Wijaya,M,1979,1T,Cibubur - Balai Kota,0,B00694P,Grand Sahid,-6.210975,106.82059,6,2023-04-06 06:24:00,B00102P,Balai Kota 1,-6.180598,106.82847,16.0,4/6/2023 6:49,20000.0
RCBY795D5O13PF,4.18214e+18,brizzi,Jagaraga Haryanto,F,2011,JAK.52,Terminal Kalideres - Terminal Muara Angke,0,B01829P,Karang Asri,-6.112414,106.77306,26,2023-04-06 05:30:00,B05714P,Term. Muara Angke 2,-6.109001,106.77349,27.0,4/6/2023 6:20,0.0
OEZG102O7U72UI,4185900000000000.0,dki,Cagak Rahimah,M,1966,6V,Ragunan - Gelora Bung Karno,1,P00048,Departemen Pertanian,-6.294641,106.82213,15,2023-04-06 05:28:00,,,,,,,3500.0
FSNP468N1T54BC,6515650000000000.0,dki,Laila Mandasari,M,2007,JAK.03,Lebak Bulus - Andara,1,B05584P,Taman DDN,-6.312565,106.7965,4,2023-04-06 06:46:00,B05860P,Villa Delima,-6.308803,106.78105,14.0,4/6/2023 7:33,0.0
VFQU855Y7C50LE,6572410000000000.0,dki,"drg. Yono Wacana, M.TI.",F,2004,B14,Bekasi Barat - Kuningan,1,B05887P,Wisma Budi,-6.214325,106.83073,2,2023-04-06 06:28:00,B00274P,Cipta Rasuna Said,-6.216146,106.83087,3.0,4/6/2023 7:01,20000.0
BDZV299B1Z56XD,342363000000000.0,emoney,Dr. Kanda Waluyo,F,1993,8C,Kebayoran Lama - Tanah Abang,1,B04301P,Sbr. RSUD Tanah Abang,-6.191139,106.81506,10,2023-04-06 05:27:00,B03296P,Rusun Tanah Abang 1,-6.192314,106.81481,11.0,4/6/2023 6:10,3500.0
HGSY470Q0C62SN,6549840000000000.0,dki,"Salimah Lestari, M.Farm",F,1988,6N,Ragunan - Blok M via Kemang,0,B00066P,Arsip Nasional RI 1,-6.279439,106.81987,10,2023-04-06 05:54:00,B02364P,Masjid Nurul Falah,-6.257714,106.81326,20.0,4/6/2023 6:19,3500.0
AIWB439P5J50OT,2276800000000000.0,dki,"dr. Bakda Dabukke, M.TI.",M,1967,11D,Pulo Gebang - Pulo Gadung 2 via PIK,1,P00270,Walikota Jakarta Timur,-6.21254,106.94537,30,2023-04-06 05:52:00,P00194,Pulo Gebang,-6.213275,106.953327,31.0,4/6/2023 6:45,3500.0
HWJQ720H3Z29NZ,2290320000000000.0,dki,Edison Kusmawati,F,2004,M1H,,0,P00056,Explorer Tanah Abang,-6.184305,106.81158,13,2023-04-06 05:00:00,B01787P,JPO Blok G,-6.188861,106.81135,16.0,4/6/2023 5:55,
MODR109D7X16FO,3525690000000000.0,dki,Victoria Handayani,M,1948,8,Lebak Bulus - Pasar Baru via Tomang,0,P00260,Tomang Mandala,-6.176875,106.80037,20,2023-04-06 05:14:00,P00147,Pasar Baru,-6.166129,106.83483,25.0,4/6/2023 5:54,3500.0
MUZM063T9B27BE,6568830000000000.0,dki,Jarwa Hartati,F,1967,JAK.35,Pangkalan Jati - Rawamangun,1,,Pool Hiba Utama 1,-6.206384,106.90269,11,2023-04-06 05:20:00,B01202P,Jln. Kapuk 3,-6.217924,106.89993,15.0,4/6/2023 5:56,0.0
YUVA329Z6O77UP,3591530000000000.0,dki,T. Hadi Prabowo,M,1995,12C,Rusun Waduk Pluit - Penjaringan,0,B02361P,Masjid Luar Batang,-6.126266,106.8044,4,2023-04-06 05:42:00,B03166P,RS Pluit,-6.125386,106.79987,11.0,4/6/2023 6:23,0.0
OSXO148C3H31FL,3516830000000000.0,dki,"Drs. Candra Nugroho, S.Sos",F,1987,9C,Pinang Ranti - Bundaran Senayan,1,P00252,Tegal Parang Arah Timur,-6.239005,106.83106,5,2023-04-06 05:40:00,P00179,Pinang Ranti,-6.291075,106.88634,15.0,4/6/2023 6:10,3500.0
OTLN649L6Q64IT,4953110000000000.0,dki,Ade Mustofa,M,1984,M10,PGC 2 - Tanjung Priok,1,P00002,Ahmad Yani Bea Cukai,-6.205526,106.87378,13,2023-04-06 06:27:00,P00032,Cawang Soetoyo,-6.244771,106.87598,18.0,4/6/2023 7:26,3500.0
QBDS674U6S88AX,30328500000000.0,bni,Bakijan Prasetya,F,1992,10,Tanjung Priok - PGC 2,1,P00267,Utan Kayu Rawamangun,-6.197515,106.87404,9,2023-04-06 05:24:00,P00272,Walikota Jakarta Utara Arah Utara,-6.118842,106.89314,18.0,4/6/2023 5:46,3500.0
UMDF880E8A76BZ,3526440000000000.0,dki,"Maya Susanti, M.Pd",F,1998,JAK.20,Cawang UKI - Lubang Buaya,0,B02757P,Persada Purnawira Halim,-6.259498,106.88584,8,2023-04-06 06:07:00,B03497P,Sbr. Gg. Ahmad Squadron,-6.269167,106.87759,23.0,4/6/2023 7:07,0.0
KRQF551Z3D01DE,4605450000000.0,online,Adinata Irawan,F,2012,11N,Rusun Cipinang Muara - Jatinegara,0,B00920P,Jln. Bekasi Timur I Jatinegara,-6.215457,106.87083,13,2023-04-06 06:04:00,,,,,,,0.0
RCWU766G3J79CG,4622140000000000.0,dki,Nasim Damanik,M,1949,JAK.02,Kampung Melayu - Duren Sawit,0,B04727P,Simpang BKT,-6.230001,106.91423,36,2023-04-06 05:42:00,B04476P,Sbr. SMPN 195,-6.230919,106.90988,38.0,4/6/2023 6:42,0.0
HICH809P2R64EI,3599060000000000.0,dki,"Drs. Natalia Fujiati, M.Kom.",F,1991,M3,,1,P00081,Indosiar,-6.163376,106.77514,8,2023-04-06 05:36:00,P00087,Jelambar,-6.166548,106.78651,9.0,4/6/2023 6:35,3500.0
GRAO750R2G98RA,4062700000000000.0,dki,Kiandra Mahendra,F,2009,1E,Pondok Labu - Blok M,1,B02538P,One Belpark 1,-6.304695,106.79445,18,2023-04-06 05:38:00,B05072P,Simpang Pinang I Pondok Labu,-6.309114,106.79567,21.0,4/6/2023 6:21,3500.0
EKNX492I0X30MN,4171600000000000.0,dki,"Viktor Siregar, S.T.",F,1997,7B,Kampung Rambutan - Blok M,0,B01695P,Jln. Veteran 1,-6.253781,106.83581,31,2023-04-06 06:23:00,P00259,Tirtayasa,-6.239207,106.80777,39.0,4/6/2023 6:54,3500.0
EMIB045T3E20JM,4868990000000.0,online,Lasmanto Saputra,F,1983,1Q,Rempoa - Blok M,0,B05454P,St. Kebayoran,-6.239001,106.78198,17,2023-04-06 06:47:00,B03170P,RS Pusat Pertamina 2,-6.241189,106.79301,21.0,4/6/2023 7:46,3500.0
IMOA529T6C41ZJ,3567210000000000.0,dki,Shakila Wacana,F,1969,1H,Tanah Abang - Stasiun Gondangdia,1,B04101P,Sbr. MNC Center,-6.182744,106.83084,10,2023-04-06 05:13:00,B05445P,St. Gondangdia 2,-6.185054,106.8323,11.0,4/6/2023 5:54,3500.0
IXFT876S7C02NR,4140090000000000.0,dki,Eva Fujiati,M,1992,11P,Rusun Pondok Bambu - Walikota Jakarta Timur,0,B06652P,Penggilingan 1,-6.214459,106.93945,20,2023-04-06 06:16:00,B06654P,Walikota Jakarta Timur 1,-6.212327,106.94515,21.0,4/6/2023 7:15,0.0
UFDL201Y9N55GP,2541000000000000.0,dki,"Shakila Suryatmi, M.TI.",F,1988,JAK.59,Rawamangun - Tanah Merah,0,B03494P,Sbr. Fuso,-6.176222,106.87668,9,2023-04-06 05:25:00,B00170P,Boulevard Janur Elok Raya 2,-6.150553,106.90922,28.0,4/6/2023 6:22,0.0
HSDW441G1L24IV,4384590000000000.0,dki,Kayun Anggriawan,M,2008,JAK.17,Senen - Pulo Gadung,0,B03822P,Sbr. Jln. Pulo Gundul,-6.186269,106.85159,41,2023-04-06 05:08:00,B04973P,Simpang Lima Senen,-6.179154,106.84241,48.0,4/6/2023 5:42,0.0
CHBJ538X5Z85EZ,213128000000000.0,emoney,"Sutan Leo Salahudin, S.Pt",M,1991,7F,Kampung Rambutan - Juanda via Pasar Baru,1,P00247,Tanah Merdeka Arah Timur,-6.307866,106.87389,15,2023-04-06 05:45:00,P00101,Kampung Rambutan,-6.309885,106.88216,16.0,4/6/2023 6:23,3500.0
LTKC321T0N55ER,3548240000000000.0,dki,Catur Wibisono,F,1982,3E,Puri Kembangan - Sentraland Cengkareng,1,B00192P,BSI Cengkareng,-6.147973,106.72781,13,2023-04-06 05:38:00,B04643P,Sekolah Pah Tsung,-6.136693,106.73785,21.0,4/6/2023 6:02,3500.0
WBCD918Y9D28SI,6011450000000000.0,dki,Queen Susanti,F,1971,JAK.112,Terminal Tanah Merah - Pulo Gadung,1,B01516P,Jln. Primanota,-6.168008,106.91097,16,2023-04-06 05:30:00,B02967P,Pos RW 10 Jingga Raya,-6.163696,106.90887,20.0,4/6/2023 6:20,0.0
NZRT391N2O97PY,3569690000000000.0,dki,"Dt. Wisnu Pranowo, S.Sos",M,1999,,,0,P00224,Slamet Riyadi,-6.208533,106.85929,9,2023-04-06 05:20:00,P00137,Monas,-6.176248,106.82286,18.0,4/6/2023 6:01,3500.0
UCDT113X6A46TF,2226620000000000.0,dki,Adinata Namaga,M,1984,JAK.61,Cempaka Putih - Pulo Gadung via Kelapa Gading,1,B05163P,Simpang Sunter Indah Raya,-6.153695,106.87931,36,2023-04-06 05:03:00,B04306P,Sbr. Ruko Cempaka Mas,-6.161876,106.87476,41.0,4/6/2023 6:01,0.0
KARL900K0E40TF,4.56906e+18,brizzi,Martana Hutapea,F,1988,JAK.20,Cawang UKI - Lubang Buaya,1,B00153P,BKKBN 2,-6.253103,106.88108,33,2023-04-06 06:13:00,B00233P,Cawang Blue Bird 2,-6.248866,106.87753,36.0,4/6/2023 7:09,0.0
HTXJ661M5H78NI,676380000000.0,flazz,Caturangga Astuti,M,1986,JAK.84,,0,B01448P,Jln. Panca Warga IV,-6.239508,106.88341,12,2023-04-06 05:24:00,B02332P,Masjid Jami Assyakirin Kalimalang,-6.239262,106.88963,14.0,4/6/2023 5:51,0.0
QJNS361G2B35GS,213172000000000.0,emoney,Uchita Jailani,M,1992,JAK.60,Kelapa Gading - Rusun Kemayoran,0,B03228P,Ruko Boulevard Barat Raya,-6.152164,106.89078,31,2023-04-06 06:41:00,B01960P,Kemayoran Landas Pacu Timur 1,-6.152433,106.8539,48.0,4/6/2023 7:21,0.0
PMCC170O2I01GX,6595870000000000.0,dki,"Irsad Sitompul, S.Pt",M,1974,7C,Cibubur - BKN,1,B00226P,Buperta Cibubur,-6.370321,106.89628,1,2023-04-06 06:49:00,B00248P,Cibubur Junction,-6.368735,106.89366,2.0,4/6/2023 7:46,3500.0
SOIE268Q0B04VG,3533300000000000.0,dki,Puti Wijaya,M,1994,JAK.117,Tanjung Priok - Tanah Merdeka,1,B00040P,Ampera Yos Sudarso,-6.122624,106.89322,23,2023-04-06 05:53:00,B01056P,Jln. Elpa Putih II,-6.110053,106.88721,28.0,4/6/2023 6:39,0.0
BGGW547V9V80UK,347490000000000.0,emoney,"Ridwan Saragih, S.Sos",F,1991,JAK.86,Term. Rawamangun - Term. Manggarai,0,B06533P,Jln. Bujana Tirta Raya 2,-6.205537,106.87659,12,2023-04-06 05:01:00,B06542P,Sbr. RPTRA Pesona Manggarai,-6.213105,106.85284,24.0,4/6/2023 5:39,0.0
ZMPI047X8C91LD,3592010000000000.0,dki,"Tgk. Fitriani Wijayanti, M.Kom.",F,1997,M5,Matraman Baru - Ancol,1,P00142,Pal Putih,-6.184631,106.84402,6,2023-04-06 06:23:00,P00214,Salemba UI,-6.193373,106.84891,8.0,4/6/2023 7:04,3500.0
NLKC399A5G17PR,676268000000.0,flazz,Jaka Pratiwi,F,2008,11M,Rusun Rawa Bebek - Bukit Duri,0,P00057,Flyover Jatinegara,-6.215175,106.87356,12,2023-04-06 06:49:00,B02272P,Masjid As Sudairi,-6.220626,106.8591,15.0,4/6/2023 7:18,0.0
ICLE815W3K34HQ,376070000000000.0,emoney,Harjaya Permata,F,1985,3F,Kalideres - Gelora Bung Karno,1,P00225,Slipi Kemanggisan Arah Selatan,-6.189781,106.79726,13,2023-04-06 06:21:00,P00218,Senayan JCC Arah Timur,-6.214145,106.809,15.0,4/6/2023 6:42,3500.0
QCJK520J7O51EO,5313200000000000.0,dki,Ikhsan Suwarno,M,1987,JAK.30,Grogol - Meruya via Roxy,0,B05735P,The Food Hall Kb. Jeruk,-6.190971,106.75768,36,2023-04-06 06:35:00,B01362P,Jln. Manunggal Meruya Selatan,-6.203307,106.73894,53.0,4/6/2023 7:17,0.0
XJQJ393C7Y26IC,30482900000000.0,bni,Puti Salwa Usamah,F,1989,9D,Pasar Minggu - Tanah Abang,0,B05666P,Tanah Abang 2,-6.181926,106.81409,3,2023-04-06 05:28:00,B05688P,Tegal Parang 2,-6.238571,106.83054,24.0,4/6/2023 6:18,3500.0
CKYX640C9M03LB,4.32337e+18,brizzi,Lasmanto Widodo,F,2010,JAK.02,Kampung Melayu - Duren Sawit,1,B05083P,Simpang Pondok Bambu Batas 2,-6.241533,106.90058,9,2023-04-06 06:48:00,B02623P,Ps. Kam 2,-6.231603,106.87402,28.0,4/6/2023 7:10,0.0
ICHG716E6V47TV,3586340000000000.0,dki,Caraka Hassanah,F,1986,4E,Rusun Jatinegara Kaum - Pulo Gadung,0,B02848P,Pintu Kawasan 2,-6.1896,106.90629,13,2023-04-06 05:59:00,B02671P,Ps. Pulo Gadung 2,-6.18751,106.90589,14.0,4/6/2023 6:37,0.0
MFFH019Q8C52OY,4.31777e+18,brizzi,Kanda Nababan,F,1973,JAK.02,Kampung Melayu - Duren Sawit,1,B05531P,STIS,-6.231063,106.86716,33,2023-04-06 05:30:00,B00139P,Bidara Cina 2,-6.22994,106.86709,34.0,4/6/2023 6:01,0.0
AWVZ383M0W42PS,4539340000000000.0,dki,Tri Suryono,M,1972,5D,PGC 1 - Ancol,1,P00086,Jatinegara RS Premier,-6.221412,106.86807,15,2023-04-06 06:55:00,,,,,,,3500.0
JUQH022A3D44TZ,6011590000000000.0,dki,"Mila Hidayanto, M.Ak",F,1994,10A,Rusun Marunda - Tanjung Priok,0,B00136P,Bidara 1,-6.106097,106.9595,4,2023-04-06 06:01:00,P00055,Enggano,-6.11015,106.89242,6.0,4/6/2023 6:31,0.0
MXET614A3B94EG,4.64027e+18,brizzi,Drs. Lantar Simbolon,M,2003,5,Matraman Baru - Ancol,1,P00076,Gunung Sahari Mangga Dua,-6.136817,106.83237,2,2023-04-06 06:35:00,P00142,Pal Putih,-6.184631,106.84402,7.0,4/6/2023 7:25,3500.0
PPUJ309Q0Y39LY,180087000000000.0,emoney,Gatra Anggriawan,F,1970,JAK.21,Cililitan - Dwikora,1,B03543P,Sbr. Gg. Langga,-6.266354,106.88136,18,2023-04-06 05:53:00,B02806P,Perumahan EKS Yon Angkub,-6.264169,106.87008,27.0,4/6/2023 6:51,0.0
MLYA878H3O53GE,3510520000000000.0,dki,Hamima Dongoran,M,1993,JAK.41,Kampung Melayu - Pulo Gadung,1,B00041P,Ananda Pulo Gadung,-6.185254,106.90716,2,2023-04-06 06:37:00,B05092P,Simpang Pulo Asem Utara Bada,-6.188953,106.89146,7.0,4/6/2023 7:08,0.0
KODI609B2E28VH,6504740000000000.0,dki,Yuliana Prasasta,M,1981,JAK.74,Terminal Rawamangun - Cipinang Muara,0,B02159P,LP Cipinang,-6.214568,106.88574,7,2023-04-06 05:08:00,B00769P,HKBP Rawamangun,-6.196463,106.88597,15.0,4/6/2023 5:58,0.0
KWFF757Z7S97BL,6011190000000000.0,dki,"Widya Saptono, M.Ak",F,1978,6Q,Dukuh Atas - Casablanca via Epicentrum Raya,0,B02554P,Pal Batu 2,-6.224559,106.8446,5,2023-04-06 05:50:00,B03014P,Puri Imperium,-6.210463,106.83229,14.0,4/6/2023 6:41,3500.0
ZXYO620V3S67WA,4.97161e+18,brizzi,Titin Nainggolan,M,1981,JAK.21,Cililitan - Dwikora,1,B04021P,Sbr. Masjid Al Fida Komodor Halim,-6.262977,106.88503,12,2023-04-06 06:27:00,B02828P,PGC Dalam,-6.261841,106.8657,31.0,4/6/2023 7:16,0.0
MZSE626B6G96WP,30022700000000.0,bni,Baktiadi Widiastuti,F,2006,S22,Ciputat - Kampung Rambutan,1,B02068P,Komplek Uin,-6.308924,106.75601,18,2023-04-06 05:43:00,B02904P,Polsek Ciputat 2,-6.310464,106.7551,19.0,4/6/2023 6:12,3500.0
TBVG575M7C23PM,6011450000000000.0,dki,"Sabrina Rajasa, S.Psi",M,1971,JAK.44,Andara - Stasiun Universitas Pancasila,0,B02325P,Masjid Jami Al Wiqoyah,-6.326852,106.82337,22,2023-04-06 06:15:00,B06832P,Gg. H. Ali,-6.327369,106.833219,34.0,4/6/2023 6:39,0.0
WIWB287W3R37XN,4989510000000000.0,dki,Silvia Kurniawan,F,1984,JAK.16,Cililitan - Condet,0,B04733P,Simpang Budaya Batu Ampar 1,-6.273166,106.86047,9,2023-04-06 06:17:00,B02445P,Midi Utama Condet Raya,-6.275675,106.85596,26.0,4/6/2023 7:00,0.0
BHFW336G2E40KC,6550920000000000.0,dki,Almira Uyainah,F,2000,JAK.15,Bulak Turi - Tanjung Priok,0,B04410P,Sbr. Sisma Medikal,-6.113231,106.91761,33,2023-04-06 05:49:00,B02761P,Pertamina Kilang Minyak,-6.108789,106.90537,41.0,4/6/2023 6:09,0.0
MRTI603H4J75QQ,3599230000000000.0,dki,Ratih Prasasta,F,1987,JAK.06,Kampung Rambutan - Pondok Gede,0,B01539P,Jln. Rawa Segaran,-6.306765,106.8919,47,2023-04-06 05:34:00,B05708P,Term. Kampung Rambutan,-6.308964,106.88165,50.0,4/6/2023 6:31,0.0
KWKK789W0K82BD,375069000000000.0,emoney,Violet Winarno,F,1995,JAK.39,Kalimalang - Duren Sawit,0,B04383P,Sbr. Sekolah Corpatarin,-6.227355,106.94388,21,2023-04-06 06:19:00,B03860P,Sbr. Jln. Swakarsa III,-6.244765,106.94258,30.0,4/6/2023 6:57,0.0
XFGD701J2I26YS,3554140000000000.0,dki,Prima Tampubolon,F,2004,JAK.49,Lebak Bulus - Cipulir,1,B02934P,Ponpes Darunnajah,-6.24664,106.7628,46,2023-04-06 06:06:00,B02679P,Ps. Sayur Cipulir,-6.237807,106.7674,54.0,4/6/2023 6:56,0.0
TFOF896D7Z46GP,213184000000000.0,emoney,Alika Nurdiyanti,F,1988,JAK.13,Tanah Abang - Jembatan Lima,1,B05405P,SPBU Gedong Panjang,-6.130757,106.80557,4,2023-04-06 06:30:00,B03037P,Pusenlis,-6.187443,106.80804,31.0,4/6/2023 7:21,0.0
PQRW039N6O38WS,30598800000000.0,bni,Zamira Hutapea,F,1986,6P,Cibubur - Kuningan,1,B02398P,Mega Syariah,-6.228294,106.83335,10,2023-04-06 05:24:00,B03094P,Rest Area Cibubur,-6.339993,106.89078,17.0,4/6/2023 6:00,20000.0
ILIW391G5M72HR,340796000000000.0,emoney,"Dr. Puji Dabukke, S.T.",F,2011,10B,Rusun Cipinang Besar Selatan - Penas Kalimalang,1,B00264P,Cipinang Kb. Nanas 1,-6.231595,106.87615,2,2023-04-06 05:59:00,B05535P,STMT Trisakti 1,-6.231933,106.87782,4.0,4/6/2023 6:50,0.0
HZRS829D5I71YN,30548100000000.0,bni,Ilsa Kuswandari,M,1994,6H,Senen - Lebak Bulus,1,B00285P,Cut Meutia,-6.187542,106.83294,26,2023-04-06 06:53:00,B00810P,Istiqlal 1,-6.172371,106.83071,33.0,4/6/2023 7:35,3500.0
LQFM858S0Z15MA,3508960000000000.0,dki,"Cindy Maryadi, S.Farm",M,1981,JAK.74,Terminal Rawamangun - Cipinang Muara,0,B02758P,Persahabatan,-6.20222,106.88512,13,2023-04-06 06:28:00,B04559P,Sbr. TK Tarakanita 5,-6.202364,106.88301,14.0,4/6/2023 7:07,0.0
UMHR961X6E40RE,3553410000000000.0,dki,Simon Usamah,M,1983,S21,Ciputat - CSW,1,B02068P,Komplek Uin,-6.308924,106.75601,23,2023-04-06 06:23:00,B02600P,Ps. Ciputat,-6.315627,106.74688,26.0,4/6/2023 7:06,3500.0
TQZW420S6K91BP,3544610000000000.0,dki,Bahuraksa Najmudin,F,1977,3A,Rusun Pesakih - Kalideres,0,B03286P,Rusun Pesakih,-6.161468,106.71698,0,2023-04-06 06:49:00,,,,,,,0.0
LJOG778T6A74MO,6543800000000000.0,dki,Yuliana Hasanah,F,1989,1M,Meruya - Blok M,0,B03697P,Sbr. Jln. Flamboyan Srengseng,-6.201447,106.75576,11,2023-04-06 06:09:00,B01214P,Jln. Karya Sakti Srengseng,-6.216001,106.76008,18.0,4/6/2023 6:40,3500.0
MBCD110Y3M34NH,213136000000000.0,emoney,Dr. Elma Adriansyah,M,1991,12A,Pelabuhan Kaliadem - Kota,1,P00008,Bandengan Selatan,-6.136318,106.80347,2,2023-04-06 06:41:00,B02885P,PLTU Pluit,-6.112358,106.78608,8.0,4/6/2023 7:07,3500.0
EXFL978W3L45AN,4.42611e+18,brizzi,Michelle Tarihoran,F,2010,BW9,Monas - Pantai Indah Kapuk,0,B06048P,Food Street,-6.092201,106.74388,5,2023-04-06 05:25:00,B06907P,PIK2 Pantjoran,-6.089429,106.741383,6.0,4/6/2023 6:01,0.0
FPIH056B2K40SF,639080000000.0,flazz,KH. Nugraha Hutapea,F,2008,4B,Stasiun Manggarai - UI,1,B02045P,Komplek Keuangan,-6.234028,106.84417,34,2023-04-06 05:56:00,B01889P,Kec. Tebet 2,-6.23151,106.84564,36.0,4/6/2023 6:32,3500.0
PGMW454Y5V15CP,2712790000000000.0,dki,Zelda Sudiati,F,2012,JAK.01,Tanjung Priok - Plumpang,0,B04653P,Sekolah Remaja Sungai Bambu,-6.1262,106.88414,12,2023-04-06 06:35:00,B00040P,Ampera Yos Sudarso,-6.122624,106.89322,26.0,4/6/2023 6:58,0.0
AMEQ969L4M94NB,4351600000000.0,online,Eli Sitorus,M,1992,JAK.16,Cililitan - Condet,1,B03088P,Raya Condet Munggang 2,-6.274052,106.85559,4,2023-04-06 06:06:00,B03167P,RS Polri Jaktim,-6.27067,106.86732,30.0,4/6/2023 6:56,0.0
MQFZ561D1Z79PF,30555300000000.0,bni,Zelaya Lailasari,F,1999,6A,Ragunan - MH Thamrin via Kuningan,1,P00073,GOR Sumantri,-6.221618,106.832245,5,2023-04-06 05:59:00,P00048,Departemen Pertanian,-6.294641,106.82213,17.0,4/6/2023 6:30,3500.0
TPFF575I5L20JY,213136000000000.0,emoney,"drg. Kasusra Suryatmi, S.Kom",F,1981,7A,Kampung Rambutan - Lebak Bulus,0,B05708P,Term. Kampung Rambutan,-6.308964,106.88165,0,2023-04-06 06:39:00,B01184P,Jln. Kaimun Jaya,-6.292537,106.78705,28.0,4/6/2023 7:18,3500.0
OIOV634O8Y93WO,30206100000000.0,bni,Ir. Akarsana Januar,F,2010,,Blok M - Kota,0,P00026,Bundaran Senayan,-6.227869,106.80094,3,2023-04-06 05:58:00,P00104,Karet Sudirman,-6.212457,106.82003,7.0,4/6/2023 6:49,3500.0
YGDM506U7U07IA,4254930000000000.0,dki,Edi Sihombing,M,1995,JAK.58,Cilincing - Rorotan,0,B06857P,Sbr. Komplek KPLP Marunda,-6.128898,106.956376,43,2023-04-06 05:48:00,,,,,,,0.0
XRSB324E5E80ZP,6011920000000000.0,dki,Fathonah Winarno,F,2007,3C,,0,B03277P,Rusun Kapuk Muara,-6.135667,106.76299,0,2023-04-06 05:30:00,P00170,Penjaringan,-6.126306,106.79203,1.0,4/6/2023 6:14,0.0
PCHA793M3G16QQ,676103000000.0,flazz,Dr. Mursita Nababan,M,1994,JAK.48B,,0,B05590P,Taman Gg. Kelor,-6.21124,106.85879,7,2023-04-06 06:30:00,B01323P,Jln. Limo Jatinegara Timur,-6.223388,106.86808,14.0,4/6/2023 7:10,
MGRY450A4J67JQ,6011860000000000.0,dki,Mahmud Nashiruddin,M,1986,JAK.23,Senen - Pisangan Baru,1,B06437P,Sbr. SDN Utan Kayu Selatan 23 Pagi,-6.203949,106.870877,4,2023-04-06 05:51:00,B06444P,Ps. Pramuka,-6.196962,106.857532,11.0,4/6/2023 6:12,0.0
IHGJ696D8L85HX,4731330000000000.0,dki,Bakiman Prastuti,M,1984,JAK.73,Jambore Cibubur - Pasar Rebo,1,B05117P,Simpang Raya KDW PKP,-6.340686,106.88691,59,2023-04-06 06:16:00,B05940P,PKP,-6.340253,106.88548,60.0,4/6/2023 6:54,0.0
MPUA757K2Q30KZ,4740870000000.0,online,Yuliana Yolanda,M,1978,7B,Kampung Rambutan - Blok M,0,P00053,Duren Tiga,-6.252377,106.82697,34,2023-04-06 06:21:00,P00200,Rawa Barat,-6.238947,106.81624,38.0,4/6/2023 7:04,3500.0
YJKT546J4S72VX,3509000000000000.0,dki,"R.M. Martana Novitasari, M.Kom.",F,2011,12,Tanjung Priok - Pluit,1,P00076,Gunung Sahari Mangga Dua,-6.136817,106.83237,8,2023-04-06 05:27:00,P00182,Plumpang Pertamina Arah Utara,-6.12848,106.8937,16.0,4/6/2023 5:55,3500.0
JTUG507H2E13CA,2267680000000000.0,dki,Puti Amalia Mandasari,M,1980,6A,Ragunan - MH Thamrin via Kuningan,1,P00164,Pejaten,-6.278404,106.82972,14,2023-04-06 06:19:00,P00228,SMK 57,-6.290967,106.82365,16.0,4/6/2023 7:16,3500.0
KBCS175R8W14QZ,373624000000000.0,emoney,Dian Maheswara,M,2011,JAK.54,Grogol - Benhil,1,B04984P,Simpang Mandala Raya Selatan,-6.175729,106.79887,7,2023-04-06 05:21:00,B01533P,Jln. Rasamala Dalam,-6.174938,106.80488,11.0,4/6/2023 5:58,0.0
SWUC887V3Y25OB,4453370000000000.0,dki,Ir. Hendri Prastuti,M,1955,9C,Pinang Ranti - Bundaran Senayan,0,P00145,Pancoran Tugu Arah Barat,-6.2433,106.84388,8,2023-04-06 05:22:00,P00071,Gelora Bung Karno,-6.224217,106.8058,13.0,4/6/2023 6:21,3500.0
AZVP683R2A30FL,180037000000000.0,emoney,"Raina Nababan, M.Kom.",M,1984,JAK.18,Kalibata - Kuningan,1,B01451P,Jln. Pancoran Timur V,-6.249467,106.84703,43,2023-04-06 06:12:00,B01992P,Klinik Kartika Pengadegan,-6.251312,106.85522,50.0,4/6/2023 6:53,0.0
XORX037U9R29WG,6501390000000000.0,dki,Oni Napitupulu,F,2009,1P,Senen - Blok M,1,B02501P,Museum Nasional,-6.176403,106.82263,20,2023-04-06 05:09:00,B02581P,Pasar Baru Gedung Kesenian Jakarta,-6.166751,106.83524,27.0,4/6/2023 5:31,3500.0
DYUC031M3X53GH,3573080000000000.0,dki,"Tgk. Ami Pudjiastuti, S.Sos",F,2011,JAK.42,Kampung Melayu - Pondok Kelapa,0,B00886P,Jln. Balai Rakyat,-6.224651,106.8991,24,2023-04-06 05:28:00,B00100P,Baladewa Residence,-6.229648,106.91038,31.0,4/6/2023 6:03,0.0
AWPR265B0F99WO,30557500000000.0,bni,Cindy Iswahyudi,M,1985,1F,Stasiun Palmerah - Bundaran Senayan,0,B05648P,Taman Ria,-6.213308,106.80236,3,2023-04-06 06:19:00,P00026,Bundaran Senayan,-6.227869,106.80094,6.0,4/6/2023 6:48,3500.0
SMDD996O5R43PH,3565190000000000.0,dki,"Dr. Maman Latupono, S.IP",M,1991,JAK.86,Term. Rawamangun - Term. Manggarai,0,B06533P,Jln. Bujana Tirta Raya 2,-6.205537,106.87659,12,2023-04-06 06:45:00,B00013P,Ahmad Yani Pisangan Baru,-6.211477,106.87374,17.0,4/6/2023 7:30,0.0
BEMA199O0R75YY,3522290000000000.0,dki,Gasti Pertiwi,M,2003,13C,Puri Beta - Dukuh Atas,1,P00044,CSW 1,-6.23994,106.79843,9,2023-04-06 06:11:00,P00043,Cipulir,-6.237818,106.76541,13.0,4/6/2023 6:50,3500.0
ZCDS888L0I51MH,6560290000000000.0,dki,"Ami Utami, S.T.",M,1991,6V,Ragunan - Gelora Bung Karno,0,P00254,Tendean,-6.240213,106.83102,10,2023-04-06 05:34:00,P00071,Gelora Bung Karno,-6.224217,106.8058,15.0,4/6/2023 6:04,3500.0
MACI317B1F74DY,4591010000000000.0,dki,Fitriani Safitri,M,1988,JAK.45,Lebak Bulus - Ragunan,1,B06823P,Jln. Pringgondani,-6.310813,106.806964,19,2023-04-06 05:00:00,,Sbr. SMAN 66,-6.306177,106.80368,24.0,4/6/2023 5:42,0.0
AUPJ773D2C82FJ,4.02291e+18,brizzi,Titi Winarsih,F,1992,2H,Rusun Jati Rawasari - Senen,1,B03083P,Rawa Selatan 1,-6.174148,106.85794,12,2023-04-06 05:21:00,B03273P,Rusun Jati Rawasari,-6.183517,106.86389,14.0,4/6/2023 5:56,0.0
WXTL542Z4C75RF,3520850000000000.0,dki,Dina Pudjiastuti,F,1981,6N,Ragunan - Blok M via Kemang,1,B05912P,Yayasan Al Kholidin,-6.246823,106.80566,2,2023-04-06 05:53:00,B05607P,Taman Kemang Raya,-6.255214,106.81045,5.0,4/6/2023 6:47,3500.0
YSOY003Y4B57XB,4712910000000000.0,dki,Gaiman Usada,F,1982,JAK.14,Tanah Abang - Meruya,0,B04350P,Sbr. SDN Kb. Jeruk 08,-6.198507,106.76694,46,2023-04-06 05:45:00,B03261P,Ruko Taman Kb. Jeruk,-6.197388,106.74818,58.0,4/6/2023 6:06,0.0
RBMH268I1V85BD,374791000000000.0,emoney,Prayogo Mahendra,M,1955,JAK.110A,Rusun Marunda - Terminal Terpadu Pulo Gebang,0,B00136P,Bidara 1,-6.106097,106.9595,5,2023-04-06 05:08:00,B00437P,Gg. Damai Lingkar Timur,-6.194933,106.94389,54.0,4/6/2023 6:00,0.0
BXLU365Y9B76ES,370323000000000.0,emoney,"Luthfi Waluyo, M.Kom.",M,1985,JAK.106,Terminal Kampung Melayu - Terminal Klender,0,B05290P,SMK Bina Darma DKI,-6.220551,106.92073,9,2023-04-06 05:16:00,B01040P,Jln. Dermaga Raya,-6.219151,106.89969,14.0,4/6/2023 5:45,0.0
GPSN139J7P32HQ,4.25391e+18,brizzi,H. Okto Pangestu,F,1989,JAK.48B,Stasiun Tebet - Kampung Melayu,1,B05531P,STIS,-6.231063,106.86716,2,2023-04-06 05:46:00,B00358P,Flyover Kampung Melayu,-6.22506,106.86483,5.0,4/6/2023 6:41,
TVNU177D3B60KM,4990000000000000.0,dki,"Juli Wulandari, S.IP",M,1994,JAK.53,Grogol - Pos Pengumben via Slipi,1,B03439P,Sbr. Airy Eco Binus,-6.195238,106.78878,41,2023-04-06 05:41:00,B04735P,Simpang Budi Sakti Raya,-6.188377,106.78328,56.0,4/6/2023 6:11,0.0
QSQP501Q3X47XV,213151000000000.0,emoney,Karman Utami,M,1977,1P,Senen - Blok M,1,B00127P,Benhil 3,-6.21601,106.81632,7,2023-04-06 06:57:00,B00810P,Istiqlal 1,-6.172371,106.83071,26.0,4/6/2023 7:24,3500.0
OGEM381T5S58QA,5330060000000000.0,dki,Galar Riyanti,F,2003,JAK.05,Semper - Rorotan,0,B00452P,Gg. H. Abdul Rohim Marunda,-6.120614,106.957,11,2023-04-06 05:20:00,B05577P,Taman Barito Sembar,-6.132105,106.92023,43.0,4/6/2023 6:12,0.0
YFLY938D0N00LM,4017900000000.0,online,Umaya Puspita,F,2005,JAK.40,Harapan Baru - Pulo Gebang via Rawa Kuning,0,B05109P,Simpang Raya Bekasi Rawa Kuning,-6.190565,106.96723,4,2023-04-06 06:36:00,B06261P,Gg. Jaimah,-6.196894,106.95593,18.0,4/6/2023 7:32,0.0
ZNKO477L4U43GT,2720920000000000.0,dki,"Drs. Tira Januar, S.E.I",F,2011,JAK.44,,0,B06829P,Gg. H. Bontong,-6.328009,106.824253,23,2023-04-06 06:34:00,B06830P,SPBU Jagakarsa,-6.329435,106.825314,24.0,4/6/2023 7:07,0.0
HDSC187Q7Y28SK,568672000000.0,flazz,"dr. Unggul Mahendra, S.Gz",F,1993,M13,Puri Beta 2 - Tendean,1,P00106,Kebayoran Lama,-6.23834,106.77752,5,2023-04-06 05:41:00,P00242,Swadarma,-6.23755,106.76065,8.0,4/6/2023 6:15,3500.0
UYSJ875K2Y90ZF,3542330000000000.0,dki,Jindra Lazuardi,M,1985,6T,Pasar Minggu - Velbak,0,B00342P,Essence Dharmawangsa,-6.257365,106.80495,30,2023-04-06 05:05:00,B02631P,Ps. Keramik Panglima Polim,-6.252307,106.797286,35.0,4/6/2023 5:44,3500.0
VREA104D9G66UO,30018000000000.0,bni,Putri Pradana,M,2001,JAK.42,Kampung Melayu - Pondok Kelapa,0,B01999P,Klinik Win Medika,-6.220127,106.89839,21,2023-04-06 05:27:00,B02077P,Koperasi Serba Usaha,-6.222036,106.89954,23.0,4/6/2023 6:21,0.0
HPLT921P6X18VN,4282800000000.0,online,Zelaya Jailani,M,2011,M4,,1,P00263,TU Gas,-6.19241,106.90489,2,2023-04-06 05:27:00,P00189,Pramuka LIA,-6.192238,106.86858,9.0,4/6/2023 6:12,3500.0
PLDJ699R2X75TU,4898730000000000.0,dki,Nasrullah Sinaga,M,1990,8E,Bintaro - Blok M,1,B01154P,Jln. IKPN Bintaro,-6.25997,106.76787,19,2023-04-06 05:29:00,B00349P,Flyover Bintaro,-6.25748,106.76478,23.0,4/6/2023 6:10,3500.0
ICKZ861V2J62WM,3558140000000000.0,dki,"KH. Nasrullah Adriansyah, M.Ak",M,2012,4C,TU Gas - Bundaran Senayan,1,B01840P,Kartini,-6.199557,106.82891,8,2023-04-06 05:57:00,P00167,Pemuda Rawamangun,-6.193488,106.89165,23.0,4/6/2023 6:52,3500.0
UNEL763C2H31FB,370817000000000.0,emoney,Julia Mandala,F,2002,5F,Kampung Melayu - Tanah Abang,1,B04505P,Sbr. Standard Chartered,-6.217407,106.81934,11,2023-04-06 05:22:00,B05695P,Telkom Tebet,-6.224064,106.8516,20.0,4/6/2023 5:52,3500.0
KEPK578W1W55ZZ,4924420000000000.0,dki,"Capa Pratiwi, S.Pt",M,1972,5F,,0,B05925P,Yayasan Muhammadiyah 2,-6.196871,106.81431,23,2023-04-06 05:10:00,,,,,,,3500.0
KPBN547R0Y74NB,3503610000000000.0,dki,Aisyah Farida,F,1997,M1,Blok M - Kota,1,P00026,Bundaran Senayan,-6.227869,106.80094,18,2023-04-06 05:10:00,,Blok M,-6.243312,106.80175,21.0,4/6/2023 6:07,3500.0
ORZY313R0U07AY,38361900000000.0,bni,Puti Kartika Wacana,M,1978,11Q,Kampung Melayu - Pulo Gebang via BKT,0,B03280P,Rusun Klender,-6.216567,106.92868,4,2023-04-06 05:34:00,B00263P,Cipinang Indah,-6.22943,106.89116,19.0,4/6/2023 6:27,3500.0
LGTU498N9S70GQ,30070600000000.0,bni,Olivia Manullang,M,2010,JAK.34,Rawamangun - Klender,0,B04520P,Sbr. Taman Bayu,-6.224526,106.91067,17,2023-04-06 05:39:00,,Term. Rawamangun,-6.198002,106.89099,43.0,4/6/2023 6:04,0.0
NSLP004L3M59LN,180051000000000.0,emoney,Aisyah Zulaika,F,1987,JAK.53,Grogol - Pos Pengumben via Slipi,0,B00777P,Hotel Mega Anggrek,-6.184825,106.78994,10,2023-04-06 06:53:00,B04029P,Sbr. Masjid Al Madinah,-6.205019,106.77929,35.0,4/6/2023 7:29,0.0
COLG863S0W93PU,3551990000000000.0,dki,Uli Usada,M,1976,JAK.50,Kalideres - Puri Kembangan,1,B03686P,Sbr. Jln. Darma Wanita V,-6.160782,106.73104,16,2023-04-06 06:14:00,,,,,,,0.0
ZRPN296G5J73MT,30486600000000.0,bni,"Dr. Devi Prayoga, S.Ked",M,1993,JAK.84,Terminal Kampung Melayu - Kapin Raya,0,B02313P,Masjid Jami Al Inayah,-6.224554,106.86945,3,2023-04-06 05:03:00,B01007P,Jln. Cipinang Bali III,-6.239272,106.89136,15.0,4/6/2023 5:29,0.0
VQKS261V4N74KG,4238960000000.0,online,"Drs. Jelita Dabukke, M.M.",F,1976,4F,Pinang Ranti - Pulo Gadung,0,B02974P,Pospol Makasar,-6.246997,106.90659,24,2023-04-06 05:13:00,B03959P,Sbr. Komplek Beacukai Pondok Bambu,-6.23585,106.89745,30.0,4/6/2023 5:37,3500.0
XAAC471L1Y74MV,2703930000000000.0,dki,Yance Mandasari,M,1983,13C,Puri Beta - Dukuh Atas,1,P00066,Gatot Subroto Jamsostek Arah Timur,-6.232602,106.82162,2,2023-04-06 06:23:00,P00044,CSW 1,-6.23994,106.79843,9.0,4/6/2023 7:12,3500.0
MRMS031K1C30OU,4692120000000000.0,dki,Ani Mandasari,F,1997,JIS3,Harmoni - Jakarta International Stadium,1,P00114,Kemayoran Landas Pacu Timur,-6.152181,106.85424,9,2023-04-06 06:59:00,B05550P,Sunter Icon,-6.135417,106.85589,12.0,4/6/2023 7:39,3500.0
FVPY969D8Q80RF,6011490000000000.0,dki,Rina Halimah,F,1977,R1A,Pantai Maju - Kota,0,B02208P,Mandara Permai 6,-6.11621,106.75871,11,2023-04-06 05:03:00,B00079P,Aston Pluit 1,-6.124693,106.79511,28.0,4/6/2023 5:48,3500.0
EKQB955P2J28LB,4574980000000000.0,dki,Drajat Najmudin,F,1989,JAK.23,,0,B06423P,Taman Pramuka,-6.194029,106.860802,29,2023-04-06 05:59:00,B06424P,Jln. Pramuka 5,-6.192861,106.863425,30.0,4/6/2023 6:42,0.0
OMSU145M1V46YW,567694000000.0,flazz,Amelia Farida,F,1996,1T,Cibubur - Balai Kota,1,B01835P,Karet Sudirman 1,-6.212995,106.82,10,2023-04-06 05:49:00,B00360P,Flyover Karet 2,-6.214808,106.81847,11.0,4/6/2023 6:30,20000.0
FAAF717W4B67PT,30309900000000.0,bni,drg. Puput Maryati,F,2007,6T,,1,B06739P,SMP Tarakanita 5,-6.246421,106.794721,6,2023-04-06 05:43:00,B06031P,SMU Balai Rakyat,-6.285105,106.83694,31.0,4/6/2023 6:40,3500.0
FKNH387S4U27HI,586798000000.0,flazz,"Ir. Darijan Rahimah, S.I.Kom",M,1996,10D,Kampung Rambutan - Tanjung Priok,0,P00274,Yos Sudarso Kodamar,-6.162043,106.88169,6,2023-04-06 05:57:00,P00196,Pulo Mas Bypass,-6.176953,106.876,9.0,4/6/2023 6:27,3500.0
ZFIV834Z8P65QB,4.3215e+18,brizzi,drg. Damar Anggriawan,F,1984,13,Ciledug - Tendean,0,P00001,Adam Malik,-6.236466,106.74786,2,2023-04-06 06:02:00,P00044,CSW 1,-6.23994,106.79843,10.0,4/6/2023 6:46,3500.0
QAZI934U1L02EY,4467320000000.0,online,Zahra Sihombing,M,1983,JAK.39,Kalimalang - Duren Sawit,0,B00195P,Buaran Plaza,-6.217983,106.9235,9,2023-04-06 06:04:00,B03963P,Sbr. Komplek Ddn Bintara Jaya,-6.242397,106.94263,37.0,4/6/2023 6:37,0.0
CWMC773N5H09HX,30408700000000.0,bni,Adika Firgantoro,F,1995,13,Ciledug - Tendean,1,P00268,Velbak,-6.239433,106.78552,5,2023-04-06 06:47:00,P00198,Puri Beta 2,-6.230532,106.72371,12.0,4/6/2023 7:47,3500.0
JYQQ862M4T70WK,2267220000000000.0,dki,"T. Darmana Budiman, S.E.",F,1987,JAK.39,Kalimalang - Duren Sawit,0,B02818P,Perumnas Klender 2,-6.216652,106.9308,13,2023-04-06 06:21:00,B04489P,Sbr. SMPN 252,-6.239289,106.94229,27.0,4/6/2023 7:12,0.0
HVSX382H3G01CQ,373404000000000.0,emoney,"KH. Karta Tamba, S.E.I",M,1990,JAK.113,Rusun Sindang Koja - Kp. Sawah,1,B02253P,Masjid Al Mukarromah Jampea,-6.108361,106.90098,17,2023-04-06 06:22:00,B01325P,Jln. Lorong 22,-6.108141,106.89932,19.0,4/6/2023 7:18,0.0
WBJJ194L7D17ZP,3588340000000000.0,dki,Puti Rachel Wacana,M,1974,9H,Blok M - Universitas Indonesia,1,B03079P,Rawa Barat 1,-6.238813,106.8159,6,2023-04-06 06:56:00,B00726P,H. Alwi,-6.309595,106.8389,32.0,4/6/2023 7:18,3500.0
MCLO407P7R73EO,4307790000000000.0,dki,Kemal Budiyanto,M,1989,JAK.30,Grogol - Meruya via Roxy,0,B01870P,Kec. Grogol Petamburan,-6.178341,106.7833,15,2023-04-06 06:54:00,B03247P,Ruko Meruya Ilir,-6.197437,106.75067,44.0,4/6/2023 7:36,0.0
PGCP336G7R82SA,180004000000000.0,emoney,Sutan Jabal Fujiati,F,2011,M3,Kalideres - Bundaran HI via Veteran,0,P00025,Bundaran HI,-6.193021,106.823,0,2023-04-06 05:32:00,P00088,Jembatan Baru,-6.154831,106.73038,12.0,4/6/2023 6:06,3500.0
OSZO413R6U96TI,341215000000000.0,emoney,Kardi Rahimah,F,1994,D31,Cinere - Kuningan,1,B00596P,Gedung Granadi,-6.231311,106.83301,9,2023-04-06 06:22:00,B05698P,Tempo Scan,-6.235112,106.82885,11.0,4/6/2023 7:21,20000.0
BTTL379P0J15TV,6564130000000000.0,dki,Surya Simbolon,M,1980,JAK.19,Pinang Ranti - Kampung Rambutan,0,B01409P,Jln. Mundu,-6.294375,106.88957,4,2023-04-06 05:50:00,B01299P,Jln. Kramat III Rawabinong,-6.299055,106.90782,29.0,4/6/2023 6:39,0.0
VRRJ729Y7M06YL,5433130000000000.0,dki,Dinda Siregar,M,1989,JAK.59,Rawamangun - Tanah Merah,1,B05478P,St. LRT Velodrome 2,-6.192994,106.89107,2,2023-04-06 05:27:00,B00124P,Bella Terra,-6.175296,106.89567,16.0,4/6/2023 6:27,0.0
DIOK738A6I40BE,3583970000000000.0,dki,"dr. Michelle Riyanti, S.Gz",M,1982,7C,Cibubur - BKN,0,B00248P,Cibubur Junction,-6.368735,106.89366,0,2023-04-06 05:51:00,P00016,BKN,-6.257751,106.87,1.0,4/6/2023 6:17,3500.0
ISGU627Z1D77VF,376103000000000.0,emoney,"Jagaraga Pudjiastuti, S.Ked",M,1969,JAK.29,Tanjung Priok - Sukapura,1,B06009P,Garasi Parna Raya,-6.14638,106.92353,47,2023-04-06 06:04:00,B06010P,ASSA,-6.149222,106.92471,49.0,4/6/2023 7:01,0.0
OMKB909L7B07BV,213142000000000.0,emoney,Kamila Nurdiyanti,M,2012,13D,Puri Beta - Ragunan,0,P00164,Pejaten,-6.278404,106.82972,18,2023-04-06 05:59:00,P00228,SMK 57,-6.290967,106.82365,20.0,4/6/2023 6:40,3500.0
PXML502N4W05RW,6011970000000000.0,dki,Bambang Budiman,F,1990,JAK.58,Cilincing - Rorotan,0,B03513P,Sbr. Gg. Bulak I Rorotan,-6.132862,106.9553,48,2023-04-06 05:25:00,B04086P,Sbr. Mesindo Tekninesia,-6.153361,106.95544,67.0,4/6/2023 5:57,0.0
ZCUP737M1Z15PD,4.36677e+18,brizzi,"Chandra Waluyo, S.Kom",M,1992,5,Matraman Baru - Ancol,0,,Matraman 1,-6.19998,106.85443,3,2023-04-06 05:26:00,P00118,Kramat Sentiong,-6.18798,106.84595,6.0,4/6/2023 6:11,3500.0
XDKE205A9T60UO,30109200000000.0,bni,"Hj. Icha Halim, S.E.",F,1987,10H,Tanjung Priok - Blok M,1,P00148,Pasar Baru Timur,-6.162272,106.83811,14,2023-04-06 06:38:00,P00248,Tanjung Priok,-6.10959,106.88214,18.0,4/6/2023 6:59,3500.0
SJMR130L5L26MG,180004000000000.0,emoney,Gatra Yulianti,F,1994,4E,Rusun Jatinegara Kaum - Pulo Gadung,1,B01620P,Jln. Swadaya Pln,-6.20965,106.90171,9,2023-04-06 06:16:00,B05460P,St. Klender Muka,-6.212928,106.89948,12.0,4/6/2023 6:44,0.0
AWXO099N3L39WY,639054000000.0,flazz,Mahfud Mangunsong,F,1996,3F,Kalideres - Gelora Bung Karno,1,P00099,Kalideres,-6.154412,106.7055,0,2023-04-06 05:57:00,P00282,Grogol 2 Arah Selatan,-6.167435,106.78856,10.0,4/6/2023 6:27,3500.0
CPFN554K5F64IO,4.57371e+18,brizzi,"Tgk. Mustofa Lailasari, S.Pd",F,1989,JAK.35,Pangkalan Jati - Rawamangun,0,B05671P,Tanah Koja,-6.209364,106.90161,23,2023-04-06 05:58:00,B01011P,Jln. Cipinang Timur Persahabatan,-6.202447,106.89344,30.0,4/6/2023 6:54,0.0
MLVS551T5C73YA,30520400000000.0,bni,KH. Darimin Sitompul,M,1975,11N,Rusun Cipinang Muara - Jatinegara,0,B03205P,Rsu Pengayoman,-6.214694,106.88352,7,2023-04-06 06:23:00,B05350P,SMPN 14,-6.214718,106.86485,14.0,4/6/2023 7:13,0.0
SBOJ512H5U04EY,4177260000000000.0,dki,"Xanana Palastri, S.Farm",M,2012,2Q,Gondangdia - Balai Kota,1,B05445P,St. Gondangdia 2,-6.185054,106.8323,5,2023-04-06 05:45:00,B06034P,Masjid Cut Nyak Dien,-6.1874,106.8317,6.0,4/6/2023 6:36,3500.0
JPUE855A3N21BI,675913000000.0,flazz,"H. Harjo Melani, S.H.",M,2009,7F,Kampung Rambutan - Juanda via Pasar Baru,1,P00150,Pasar Cempaka Putih,-6.172325,106.86246,5,2023-04-06 05:49:00,P00247,Tanah Merdeka Arah Timur,-6.307866,106.87389,15.0,4/6/2023 6:30,3500.0
TNNM732Z6Z89BN,4522410000000.0,online,Ajeng Lestari,M,2011,3B,Rusun Flamboyan - Cengkareng,0,B02900P,Polsek Cengkareng 1,-6.146466,106.72881,9,2023-04-06 06:28:00,B03343P,SDN Cengkareng Timur 05,-6.149212,106.72804,10.0,4/6/2023 7:09,0.0
RZZJ504Y2F04JD,675917000000.0,flazz,"Indah Pangestu, S.I.Kom",M,1978,JAK.48B,Stasiun Tebet - Kampung Melayu,0,B01732P,Jatinegara Timur,-6.220486,106.86825,11,2023-04-06 05:30:00,,Jln. Jatinegara Timur IV,-6.222457,106.86816,13.0,4/6/2023 6:10,
QFNH964H9K75JI,36275800000000.0,bni,Opung Uwais,F,2006,2E,Rusun Rawa Bebek - Kodamar,0,B06665P,Pengadilan Negeri Jaktim 2,-6.212604,106.94082,3,2023-04-06 05:18:00,B00031P,Al Wathoniyah 1,-6.192036,106.9353,16.0,4/6/2023 5:56,0.0
DOAV814K8F18CP,3583810000000000.0,dki,Nadia Prakasa,F,1995,JAK.18,Kalibata - Kuningan,0,B02553P,Pal Batu 1,-6.224652,106.84731,44,2023-04-06 06:57:00,B06530P,Jln. Kawi Guntur,-6.20973,106.8333,60.0,4/6/2023 7:18,0.0
UKMP933D8V01SD,3541110000000000.0,dki,drg. Ami Mayasari,M,1994,M12,,1,P00131,Mangga Dua,-6.136148,106.82597,7,2023-04-06 05:17:00,P00239,Sunter Boulevard Barat,-6.14965,106.889,14.0,4/6/2023 6:01,3500.0
VEMA991J4A60SQ,4255260000000.0,online,Yessi Nugroho,F,1965,JAK.29,Tanjung Priok - Sukapura,0,B04399P,Sbr. Sekolah Tj. Priok,-6.114718,106.91093,34,2023-04-06 05:01:00,B02949P,Port Medical Center,-6.110114,106.88939,47.0,4/6/2023 5:48,0.0
VFLX663T7O22WH,4730610000000.0,online,Balidin Irawan,M,1973,S31,Bintaro - Fatmawati,1,B05488P,St. MRT Fatmawati,-6.292589,106.7936,0,2023-04-06 06:11:00,B03177P,RS Siloam,-6.292071,106.78467,3.0,4/6/2023 6:59,20000.0
FLVV552S7V25GY,6589170000000000.0,dki,"Dr. Yuni Tarihoran, S.Farm",F,1994,12C,Rusun Waduk Pluit - Penjaringan,0,B05080P,Simpang Pluit Raya,-6.127123,106.80441,8,2023-04-06 06:56:00,B03406P,SDN Penjaringan,-6.12527,106.80272,9.0,4/6/2023 7:23,0.0
EULR567L5B03RX,3591540000000000.0,dki,"KH. Saka Wastuti, S.Sos",F,1983,7P,Pondok Kelapa - BKN,0,B01511P,Jln. Pondok Kelapa Selatan,-6.249524,106.93552,7,2023-04-06 06:02:00,B02141P,Lion Center,-6.240451,106.87898,27.0,4/6/2023 6:29,3500.0
THFL831W3H04XA,3558050000000000.0,dki,Kenari Gunawan,F,2000,T11,Poris Plawad - Bundaran Senayan,0,B00128P,Benteng Betawi,-6.174158,106.65559,2,2023-04-06 06:59:00,B00781P,Hotel Olive 1,-6.217195,106.61882,14.0,4/6/2023 7:20,3500.0
RSHF989M1C35SN,4185580000000.0,online,Ajimat Kusumo,M,1952,6T,Pasar Minggu - Velbak,1,B05635P,Taman Panglima Polim,-6.251369,106.79751,8,2023-04-06 06:53:00,B00029P,Al Mahbubiyah,-6.291866,106.81255,21.0,4/6/2023 7:53,3500.0
SNJI327D4A49KC,4698000000000.0,online,"Drs. Yessi Widodo, S.Gz",F,1998,JAK.17,Senen - Pulo Gadung,1,B00978P,Jln. Cempaka Putih Barat III,-6.176146,106.86188,24,2023-04-06 06:20:00,B02988P,Praktekan Bangunan Barat 2,-6.189786,106.88164,37.0,4/6/2023 7:02,0.0
VATX705Z1N35RN,3593810000000000.0,dki,Hardana Situmorang,F,2009,M13,Puri Beta 2 - Tendean,1,P00221,Seskoal,-6.238064,106.77121,6,2023-04-06 06:47:00,P00043,Cipulir,-6.237818,106.76541,7.0,4/6/2023 7:22,3500.0
ODCY442W8T11KH,4625130000000000.0,dki,"Eja Nugroho, M.TI.",M,1980,JAK.32,Lebak Bulus - Petukangan,0,B01028P,Jln. Damai Raya,-6.248569,106.75674,32,2023-04-06 06:57:00,,Mushola Nurul Huda Petukangan,-6.247018,106.75185,38.0,4/6/2023 7:36,0.0
KMLJ689E9T51YK,6011050000000000.0,dki,Bella Saptono,F,2004,10A,Rusun Marunda - Tanjung Priok,1,B03284P,Rusun Marunda 2,-6.09826,106.96218,6,2023-04-06 06:30:00,B03282P,Rusun Marunda,-6.097099,106.96231,7.0,4/6/2023 6:55,0.0
HVXG745X7D40IU,213197000000000.0,emoney,Yoga Pradipta,F,1966,JAK.11,Tanah Abang - Kebayoran Lama,1,B01295P,Jln. KPBD,-6.223548,106.77843,9,2023-04-06 05:51:00,B03150P,RS Medika Permata Hijau 3,-6.218375,106.77849,11.0,4/6/2023 6:33,0.0
RIFN330V4E01FF,2228690000000000.0,dki,Sutan Sakti Pertiwi,M,2000,JAK.44,,1,B06837P,Simpang Ubin,-6.330948,106.828959,10,2023-04-06 05:25:00,B06842P,Jl. M. Khafi,-6.311739,106.813142,28.0,4/6/2023 5:49,0.0
TOZI343M6X89VS,3508530000000000.0,dki,"Dr. Hesti Sudiati, S.Kom",M,1987,9H,Blok M - Universitas Indonesia,1,B05881P,Wijaya Kusuma,-6.333008,106.83567,40,2023-04-06 05:47:00,B05830P,Univ. Indonesia,-6.353357,106.83186,44.0,4/6/2023 6:10,3500.0
AEHX094K0L04NP,180095000000000.0,emoney,"Ir. Jamal Situmorang, S.Pd",M,2010,5B,Stasiun Tebet - BNN,0,B03142P,RS Hermina,-6.22085,106.86512,4,2023-04-06 05:26:00,P00031,Cawang Otista,-6.243607,106.86876,11.0,4/6/2023 6:08,3500.0
JNCL477N9Y25FQ,2720610000000000.0,dki,"Dt. Umaya Putra, S.Kom",F,2005,R1A,Pantai Maju - Kota,1,B01773P,Jembatan Tiga 2,-6.132751,106.79245,9,2023-04-06 06:08:00,B03234P,Ruko Cordoba 2,-6.112645,106.74356,35.0,4/6/2023 7:04,3500.0
XLVA374P7S05JB,4.52863e+18,brizzi,"Hj. Unjani Uyainah, M.M.",F,1996,13B,Puri Beta - Pancoran Barat,0,P00198,Puri Beta 2,-6.230532,106.72371,0,2023-04-06 05:26:00,P00106,Kebayoran Lama,-6.23834,106.77752,7.0,4/6/2023 6:17,3500.0
VQXF727Q5J73FI,4295260000000.0,online,"Bahuwarna Iswahyudi, S.Ked",F,1987,8A,Jelambar - Juanda,1,P00161,Pecenongan,-6.16771,106.82819,1,2023-04-06 06:50:00,P00087,Jelambar,-6.166548,106.78651,6.0,4/6/2023 7:46,3500.0
QQCP876A3K56CY,341853000000000.0,emoney,Bahuwirya Zulaika,M,2006,,,1,B01166P,Jln. Janur Indah XI,-6.155924,106.90801,11,2023-04-06 06:24:00,B00338P,Enggano 1,-6.110213,106.89246,40.0,4/6/2023 7:08,0.0
GTMQ481L3K78BA,6554150000000000.0,dki,Yessi Hartati,M,1979,B21,Bekasi Timur - Cawang,1,B00666P,GP Mall 2,-6.259474,107.01987,5,2023-04-06 05:14:00,B01309P,Jln. Kunang Kunang 2,-6.25692,107.02125,7.0,4/6/2023 5:40,3500.0
BAWX908R6W09CO,30044700000000.0,bni,Zelaya Natsir,F,1984,JAK.77,Tanjung Priok - Jembatan Item,1,B04521P,Sbr. Taman BMW,-6.12629,106.85763,42,2023-04-06 06:08:00,B05579P,Taman BMW,-6.125862,106.85843,43.0,4/6/2023 6:58,0.0
NAFV492F2D98XS,4820770000000000.0,dki,"KH. Arta Hassanah, S.E.",F,2002,JAK.26,Rawamangun - Duren Sawit,1,B05798P,Transjakarta Pool Klender,-6.205191,106.90301,31,2023-04-06 05:28:00,B01620P,Jln. Swadaya Pln,-6.20965,106.90171,33.0,4/6/2023 6:18,0.0
QBDU585K1G55LW,4677310000000000.0,dki,"Wirda Hardiansyah, S.Pt",M,1969,13,Ciledug - Tendean,1,P00044,CSW 1,-6.23994,106.79843,3,2023-04-06 05:35:00,,Cipulir,-6.237818,106.76541,8.0,4/6/2023 6:15,3500.0
JKSR310C5H60VK,575971000000.0,flazz,"Ir. Michelle Gunawan, S.E.",M,2012,9A,PGC 2 - Grogol 2,1,P00297,BNN LRT,-6.245863,106.871143,15,2023-04-06 06:47:00,P00033,Cawang UKI,-6.250309,106.8736,17.0,4/6/2023 7:31,3500.0
TCXT713R6P15TB,375782000000000.0,emoney,Jaya Megantara,F,1986,2E,Rusun Rawa Bebek - Kodamar,1,B04898P,Simpang Kampung Jembatan 2,-6.208426,106.93576,19,2023-04-06 05:39:00,B00082P,At Thahiriah 2,-6.210011,106.93809,20.0,4/6/2023 6:30,0.0
GWHW188Q8F22YS,4.70062e+18,brizzi,Dian Nainggolan,M,2004,4D,Pulo Gadung 2 - Kuningan,0,P00103,Karet Kuningan,-6.21667,106.830737,17,2023-04-06 06:38:00,P00073,GOR Sumantri,-6.221618,106.832245,18.0,4/6/2023 7:21,3500.0
SRQE490V8C43ZT,675928000000.0,flazz,Elvina Widiastuti,M,1984,1H,,1,B00304P,Dewan Pers,-6.182996,106.82709,8,2023-04-06 05:56:00,B04101P,Sbr. MNC Center,-6.182744,106.83084,10.0,4/6/2023 6:22,3500.0
HPHW267X0F30SI,4763630000000.0,online,Raharja Oktaviani,M,2001,BW9,,0,B00806P,IRTI,-6.1803,106.82618,0,2023-04-06 05:09:00,B06048P,Food Street,-6.092201,106.74388,5.0,4/6/2023 5:49,0.0
KIIV474N4T98FO,180085000000000.0,emoney,R.M. Ganep Maryadi,F,2011,6M,Stasiun Manggarai - Blok M,1,P00103,Karet Kuningan,-6.21667,106.830737,12,2023-04-06 06:06:00,P00132,Manggarai,-6.20888,106.84739,18.0,4/6/2023 7:00,3500.0
HVSE030Z0S78EM,3549350000000000.0,dki,Syahrini Prabowo,F,1988,JAK.11,Tanah Abang - Kebayoran Lama,1,B02038P,Komplek Hankam Cidodol,-6.227802,106.77836,6,2023-04-06 05:01:00,B04637P,Sekolah Lemuel,-6.198212,106.803304,32.0,4/6/2023 5:29,0.0
ODFB555V2O50VU,6576620000000000.0,dki,Drs. Cindy Nashiruddin,M,1982,7Q,Blok M - PGC,0,B00290P,Dammara,-6.25419,106.83146,17,2023-04-06 06:51:00,B03196P,RSIA Duren Tiga 2,-6.253509,106.84135,22.0,4/6/2023 7:45,3500.0
FPVB034P2I17NL,213189000000000.0,emoney,"T. Darmanto Setiawan, S.E.",F,1982,7B,Kampung Rambutan - Blok M,1,B05658P,Taman Suryo,-6.233753,106.81265,5,2023-04-06 06:00:00,B05384P,SMPN 43,-6.240281,106.82639,13.0,4/6/2023 6:40,3500.0
JEXM070O6F79RM,3542290000000000.0,dki,Viman Suryono,F,1982,JAK.27,Pulo Gebang - Rorotan,0,B00366P,Flyover Pulo Gebang 1,-6.210497,106.95047,2,2023-04-06 05:29:00,B04406P,Sbr. Sentra Timur,-6.205428,106.94771,3.0,4/6/2023 5:52,0.0
CBNV460Z1Z37QE,60493315646.0,flazz,Vicky Namaga,M,2010,JAK.58,Cilincing - Rorotan,0,B01004P,Jln. Cilincing Baru Raya,-6.106927,106.92672,17,2023-04-06 05:35:00,,,,,,,0.0
KJYO787J2G37TJ,567377000000.0,flazz,Dr. Ida Kusumo,F,1958,13D,Puri Beta - Ragunan,0,,Puri Beta 2,-6.230532,106.72371,0,2023-04-06 06:02:00,P00200,Rawa Barat,-6.238947,106.81624,11.0,4/6/2023 6:51,3500.0
LWNV408R9Z37CI,5495670000000000.0,dki,Tiara Sitorus,F,1986,6Q,Dukuh Atas - Casablanca via Epicentrum Raya,1,,Casablanca,-6.22425,106.84452,0,2023-04-06 06:07:00,B00733P,Halimun 1,-6.205233,106.8335,13.0,4/6/2023 7:05,3500.0
KZZW066F0Z69QV,676201000000.0,flazz,Harsaya Megantara,M,1995,M11,,1,P00020,Buaran,-6.215132,106.91768,3,2023-04-06 06:09:00,P00169,Penggilingan,-6.214132,106.93961,6.0,4/6/2023 7:08,3500.0
DPBU541T1G51GR,4453580000000.0,online,Kariman Rahmawati,M,1984,4D,Pulo Gadung 2 - Kuningan,0,P00222,Setiabudi Utara,-6.209189,106.830237,15,2023-04-06 05:50:00,,,,,,,3500.0
BSIO323W5N28DP,4482140000000.0,online,Kasiyah Palastri,F,2008,JAK.04,Grogol - Tubagus Angke,1,B04147P,Sbr. Ps. Jelambar Polri,-6.160684,106.77849,12,2023-04-06 05:52:00,B04534P,Sbr. Taman Permata Indah 1,-6.144081,106.78154,24.0,4/6/2023 6:15,0.0
XAGB180R4T23QO,3570770000000000.0,dki,Ratna Salahudin,F,1986,11Q,Kampung Melayu - Pulo Gebang via BKT,0,P00194,Pulo Gebang,-6.213275,106.953327,0,2023-04-06 06:32:00,,,,,,,3500.0
DGDO242E0L96TZ,213100000000000.0,emoney,Mala Mahendra,M,2000,12F,Rusun Marunda - Rusun Waduk Pluit,0,B06312P,Sbr. Gg. Elektro,-6.114391,106.80278,9,2023-04-06 05:10:00,B03299P,Rusun Waduk Pluit,-6.111456,106.80022,10.0,4/6/2023 5:39,0.0
PCBN564G0D81MS,3587150000000000.0,dki,KH. Leo Firmansyah,F,2005,T21,Palem Semi - Bundaran Senayan,0,B00611P,Gelora Bung Karno 1,-6.224642,106.8056,9,2023-04-06 05:37:00,B05544P,Summitmas,-6.225826,106.80402,10.0,4/6/2023 6:18,20000.0
LTHM221L1Z39XQ,344862000000000.0,emoney,Tami Jailani,M,1978,10B,Rusun Cipinang Besar Selatan - Penas Kalimalang,1,B05535P,STMT Trisakti 1,-6.231933,106.87782,4,2023-04-06 06:25:00,B05784P,TPU Kb. Nanas 1,-6.23219,106.88051,5.0,4/6/2023 7:24,0.0
ZNVX370W9G41IX,501898000000.0,flazz,Jaga Tampubolon,F,2011,11B,Rusun Rawa Bebek - Penggilingan,1,,Walikota Jakarta Timur 1,-6.212327,106.94515,1,2023-04-06 05:32:00,B03291P,Rusun Rawa Bebek,-6.196241,106.9658,2.0,4/6/2023 6:03,0.0
EQOR516F1N69VZ,630447000000.0,flazz,"Cornelia Santoso, M.Ak",F,1989,1A,Pantai Maju - Balai Kota,1,B02650P,Ps. Muara Karang,-6.116367,106.77824,21,2023-04-06 06:37:00,B00386P,Galeri Niaga Mediterania 1,-6.116646,106.77135,23.0,4/6/2023 7:09,3500.0
GMLH637B6S15OC,4149210000000000.0,dki,Dwi Handayani,F,2002,JAK.40,Harapan Baru - Pulo Gebang via Rawa Kuning,1,B04740P,Simpang Bundaran Ikan Harapan Indah Raya 1,-6.181458,106.98134,45,2023-04-06 06:18:00,P00157,Pasar Modern Harapan Indah,-6.168544,106.97431,48.0,4/6/2023 6:45,0.0
UTES339J0C64RH,4723670000000000.0,dki,Lalita Iswahyudi,F,1995,12H,Rusun Penjaringan - Penjaringan,0,B03285P,Rusun Penjaringan,-6.130702,106.79487,0,2023-04-06 05:34:00,P00170,Penjaringan,-6.126306,106.79203,1.0,4/6/2023 6:23,3500.0
CTWT731R7L46ND,4996230000000.0,online,Jasmin Pangestu,F,2006,T21,Palem Semi - Bundaran Senayan,0,B02896P,Polda Metro Jaya 1,-6.221726,106.80984,8,2023-04-06 05:24:00,B00221P,Bundaran Senayan 1,-6.227445,106.80187,11.0,4/6/2023 6:14,20000.0
MQLH566F4I06QE,6504990000000000.0,dki,Uli Utama,F,1982,12B,Pluit - Senen,1,P00098,Kali Besar Barat,-6.135355,106.81143,16,2023-04-06 05:22:00,B02489P,Muara Angke,-6.110009,106.77471,39.0,4/6/2023 6:17,3500.0
TBFF634C9S64IK,213180000000000.0,emoney,Dr. Hendra Saputra,F,1993,11C,Rusun Pinus Elok - Rusun Pulo Gebang,1,B05202P,Simpang Tiga Pulo Gebang Raya,-6.206982,106.95468,1,2023-04-06 05:01:00,B03287P,Rusun Pinus Elok Blok A,-6.201272,106.93757,15.0,4/6/2023 5:54,0.0
KMPQ257S3S53EC,6552750000000000.0,dki,"Drs. Irma Wijaya, S.Gz",M,2008,9C,Pinang Ranti - Bundaran Senayan,1,P00071,Gelora Bung Karno,-6.224217,106.8058,1,2023-04-06 06:55:00,P00030,Cawang Ciliwung Arah Timur,-6.243012,106.86354,10.0,4/6/2023 7:17,3500.0
HSMF343F5P54VM,3582170000000000.0,dki,Endah Putra,M,1991,JAK.18,Kalibata - Kuningan,0,B04263P,Sbr. Puskesmas Setiabudi,-6.206882,106.83363,53,2023-04-06 06:04:00,B06530P,Jln. Kawi Guntur,-6.20973,106.8333,60.0,4/6/2023 6:26,0.0
RMWK974M2R99GE,4845710000000000.0,dki,Vero Hastuti,M,1989,JAK.85,Bintara - Cipinang Indah,1,B05615P,Taman Malaka Barat 1D,-6.231106,106.92698,25,2023-04-06 05:37:00,B01641P,Jln. Taman Malaka Utara 3 Gg D,-6.230639,106.93161,28.0,4/6/2023 6:00,0.0
EEFS659Y6E07TE,4743960000000000.0,dki,Ifa Zulkarnain,F,1993,M4,Pulo Gadung 2 - Dukuh Atas 2,1,P00263,TU Gas,-6.19241,106.90489,2,2023-04-06 05:35:00,P00269,Velodrome,-6.193468,106.8883,5.0,4/6/2023 6:33,3500.0
ONGH645W4F99QK,4551090000000.0,online,"Lukman Agustina, S.Pt",F,1987,9N,Pinang Ranti - Pramuka,0,P00064,Garuda Taman Mini,-6.290154,106.88116,1,2023-04-06 05:22:00,P00016,BKN,-6.257751,106.87,2.0,4/6/2023 5:58,3500.0
PEMM905R8S51LL,676256000000.0,flazz,Shakila Hartati,F,1989,12H,Rusun Penjaringan - Penjaringan,0,B03285P,Rusun Penjaringan,-6.130702,106.79487,0,2023-04-06 05:58:00,P00170,Penjaringan,-6.126306,106.79203,1.0,4/6/2023 6:36,3500.0
MKWT794S9S73DW,213176000000000.0,emoney,Garan Ramadan,M,1978,M11,Pulo Gebang - Pulo Gadung 2,0,P00270,Walikota Jakarta Timur,-6.21254,106.94537,1,2023-04-06 06:37:00,P00174,Perumnas Klender,-6.216689,106.93054,3.0,4/6/2023 7:05,3500.0
NJCL413I5D64EN,6011710000000000.0,dki,Yuliana Prastuti,F,1985,6V,Ragunan - Gelora Bung Karno,0,P00129,Mampang Prapatan,-6.242699,106.82572,9,2023-04-06 05:11:00,P00071,Gelora Bung Karno,-6.224217,106.8058,15.0,4/6/2023 6:08,3500.0
XFPU050B7E27OM,3569630000000000.0,dki,Agnes Zulkarnain,M,1987,JAK.60,Kelapa Gading - Rusun Kemayoran,0,B00793P,Imigrasi Kelas 1 Jakut,-6.145052,106.89379,25,2023-04-06 06:37:00,B03231P,Ruko Cempaka Mas,-6.161942,106.87466,41.0,4/6/2023 7:21,0.0
JFNZ256Z3F80GS,4.9194e+18,brizzi,"Ir. Kartika Maulana, S.T.",F,1965,4F,Pinang Ranti - Pulo Gadung,0,B02942P,Pool Hiba Utama 2,-6.20608,106.90261,42,2023-04-06 06:24:00,B02999P,Pulo Gadung 4,-6.184383,106.90798,52.0,4/6/2023 6:49,3500.0
JQFU852N1S23FS,6011230000000000.0,dki,"dr. Vera Anggraini, S.Kom",F,2005,5C,PGC - Juanda,1,P00297,BNN LRT,-6.245863,106.871143,15,2023-04-06 06:41:00,P00178,PGC 2,-6.2619,106.8657,19.0,4/6/2023 7:20,3500.0
LUCO599C9X26TV,4.15071e+18,brizzi,Paris Sihombing,F,1986,12P,St. LRT Pegangsaan Dua - JIS,0,P00229,SMP 140,-6.139776,106.8592,12,2023-04-06 06:15:00,B06080P,Jln. Sunter Permai 2,-6.131551,106.86248,14.0,4/6/2023 6:55,3500.0
XASR993X6X27UN,3544900000000000.0,dki,Hasna Sudiati,M,2012,M6,Ragunan - MH Thamrin,1,P00025,Bundaran HI,-6.193021,106.823,17,2023-04-06 06:37:00,P00010,Bank Indonesia Arah Utara,-6.182776,106.8228,19.0,4/6/2023 7:27,3500.0
LUKA783D3Z45EL,639014000000.0,flazz,Zaenab Hastuti,F,2007,10B,Rusun Cipinang Besar Selatan - Penas Kalimalang,0,B05785P,TPU Kb. Nanas 2,-6.232106,106.88017,1,2023-04-06 05:45:00,B05536P,STMT Trisakti 2,-6.231981,106.8777,2.0,4/6/2023 6:15,0.0
NPZY607T7A36FE,346011000000000.0,emoney,Jumadi Laksmiwati,M,1995,6U,Blok M - Pasar Minggu,1,B00312P,Direktorat Jenderal Hortikultura,-6.285538,106.8393,7,2023-04-06 06:44:00,B00250P,Cikajang Wolter Monginsidi,-6.239122,106.81084,25.0,4/6/2023 7:06,3500.0
LYOK727N8J96UO,4050430000000000.0,dki,Jelita Mahendra,F,2012,M9,Pinang Ranti - Pluit,0,P00064,Garuda Taman Mini,-6.290154,106.88116,1,2023-04-06 06:39:00,P00170,Penjaringan,-6.126306,106.79203,23.0,4/6/2023 7:26,3500.0
