transID,payCardID,payCardBank,payCardName,payCardSex,payCardBirthDate,corridorID,corridorName,direction,tapInStops,tapInStopsName,tapInStopsLat,tapInStopsLon,stopStartSeq,tapInTime,tapOutStops,tapOutStopsName,tapOutStopsLat,tapOutStopsLon,stopEndSeq,tapOutTime,payAmount
LEHP720K4F60CY,630496000000.0,flazz,Cut Queen Hasanah,M,1995,5D,PGC 1 - Ancol,1,P00021,Budi Utomo,-6.166063,106.83906,5,2023-04-30 09:59:00,P00070,Gelanggang Remaja,-6.235445,106.86795,17.0,4/30/2023 10:35,3500.0
UYAY555L6A32SA,675922000000.0,flazz,Drs. Talia Purnawati,M,1989,4,Pulo Gadung 2 - Tosari,1,P00152,Pasar Genjing,-6.194446,106.86092,4,2023-04-30 13:24:00,P00265,UNJ,-6.192931,106.88033,8.0,4/30/2023 13:41,3500.0
XMJK846A6N44UO,4.57371e+18,brizzi,"dr. Baktiadi Nuraini, S.Kom",M,1977,JAK.04,Grogol - Tubagus Angke,0,B02617P,Ps. Jelambar Polri,-6.160652,106.77891,8,2023-04-30 21:33:00,B00215P,Bunda Hati Kudus Jelambar,-6.165552,106.78484,13.0,4/30/2023 23:33,0.0
YPLK124I7X66LI,2701230000000000.0,dki,Asman Pertiwi,M,1980,1,Blok M - Kota,1,P00098,Kali Besar Barat,-6.135355,106.81143,0,2023-04-30 11:53:00,P00133,Masjid Agung,-6.236483,106.79845,19.0,4/30/2023 13:51,3500.0
QAHE392R4W61PA,4245530000000.0,online,Dadap Mardhiyah,M,2004,S22,Ciputat - Kampung Rambutan,1,B02068P,Komplek Uin,-6.308924,106.75601,18,2023-04-30 08:28:00,B02945P,Pool PPD Ciputat,-6.331231,106.74851,23.0,4/30/2023 8:44,3500.0
LWQN342B0F23XC,3543070000000000.0,dki,Wani Winarsih,M,1999,,,0,B02830P,Pharmin,-6.182988,106.81306,4,2023-04-30 08:37:00,B05029P,Simpang Palmerah Barat Rawa Belong,-6.206758,106.78372,29.0,4/30/2023 9:37,0.0
YCZU394E3Q76LC,213190000000000.0,emoney,Koko Suartini,F,1996,9,Pinang Ranti - Pluit,0,P00075,Grogol 2 Arah Utara,-6.167253,106.78781,19,2023-04-30 05:15:00,P00089,Jembatan Besi,-6.152005,106.7949,21.0,4/30/2023 6:07,3500.0
MOSD944S8R80AO,4268520000000000.0,dki,"drg. Gadang Lestari, M.Pd",M,1995,JAK.18,Kalibata - Kuningan,1,B05189P,Simpang Tebet Raya Timur,-6.22987,106.85278,27,2023-04-30 05:39:00,B03311P,Santo Lukas,-6.244763,106.84319,39.0,4/30/2023 7:19,0.0
LGZJ198U5Q80JD,675920000000.0,flazz,Timbul Padmasari,F,2012,M5,Matraman Baru - Ancol,1,P00148,Pasar Baru Timur,-6.162272,106.83811,4,2023-04-30 12:56:00,P00109,Matraman Baru,-6.21288,106.86115,13.0,4/30/2023 14:05,3500.0
OBQL007F3Q99AT,562429000000.0,flazz,Cici Sirait,M,2003,JAK.44,Andara - Stasiun Universitas Pancasila,0,B01147P,Jln. H. Terin Pangkalan Jati,-6.327961,106.80054,0,2023-04-30 13:39:00,B04275P,Sbr. RS Aulia,-6.334599,106.82757,28.0,4/30/2023 15:39,0.0
IDIE861B3L33DO,3596570000000000.0,dki,Raden Mandala,M,2006,D11,Depok - BKN,0,B02854P,Pintu Tol Cijago,-6.380896,106.86742,11,2023-04-30 19:36:00,P00016,BKN,-6.257751,106.87,12.0,4/30/2023 20:41,3500.0
FJBB833N3D66IX,2706150000000000.0,dki,Jindra Nashiruddin,M,1998,JAK.11,Tanah Abang - Kebayoran Lama,0,B03805P,Sbr. Jln. Palmerah Utara II,-6.202773,106.79815,20,2023-04-30 14:10:00,B04359P,Sbr. SDN Palmerah 09,-6.207764,106.78798,27.0,4/30/2023 14:39,0.0
MOMA579O1O26CI,575760000000.0,flazz,Rahmi Maheswara,F,1992,JIS3,Harmoni - Jakarta International Stadium,0,P00095,JIS,-6.126689,106.85587,0,2023-04-30 14:47:00,P00097,Juanda,-6.168048,106.83089,11.0,4/30/2023 15:08,3500.0
NCNY330J6W84IR,4.38987e+18,brizzi,"Eka Saptono, S.Farm",M,1990,13D,Puri Beta - Ragunan,0,P00024,Buncit Indah,-6.274333,106.83029,17,2023-04-30 05:46:00,P00199,Ragunan,-6.305769,106.81949,22.0,4/30/2023 6:48,3500.0
ERIQ264O9I01BI,180016000000000.0,emoney,Fitria Najmudin,M,1967,D31,Cinere - Kuningan,0,B05399P,South City Cinere,-6.34504,106.767638,0,2023-04-30 05:04:00,B01893P,Kedubes Malaysia,-6.22384,106.83259,10.0,4/30/2023 6:08,20000.0
DNLW111Y6R28TB,6503420000000000.0,dki,Vanya Setiawan,F,2010,B14,Bekasi Barat - Kuningan,0,P00236,Summarecon Bekasi,-6.225566,107.00281,0,2023-04-30 21:46:00,P00011,Bekasi Barat,-6.250045,106.99167,4.0,4/30/2023 22:05,20000.0
HQIT864T1J35VR,3532840000000000.0,dki,Hamzah Putra,M,1995,JAK.49,Lebak Bulus - Cipulir,0,B03955P,Sbr. Kodam Bintaro,-6.259531,106.75878,23,2023-04-30 16:12:00,B03328P,SD Kartika X-4,-6.259431,106.75611,26.0,4/30/2023 16:29,0.0
UFNB570K3J24IY,6529540000000000.0,dki,Okta Sitorus,M,1988,JAK.117,Tanjung Priok - Tanah Merdeka,1,B02993P,PTT,-6.109953,106.88381,29,2023-04-30 06:55:00,B05728P,Term. Tj. Priok 1,-6.1098,106.88118,30.0,4/30/2023 8:03,0.0
VHUU066E1C51CR,4225460000000000.0,dki,"Faizah Suryatmi, M.M.",F,1985,JAK.22,Dwikora - Penas Kalimalang,0,B01820P,Kantor Pos Halim 2,-6.251103,106.88925,5,2023-04-30 11:36:00,B05243P,SMA Angkasa 1,-6.24975,106.88267,9.0,4/30/2023 12:38,0.0
GUTL944X4L44PV,180007000000000.0,emoney,Ratna Wijayanti,M,1979,8K,Batusari - Grogol,1,B05178P,Simpang Tj. Duren Timur 6,-6.182362,106.78363,13,2023-04-30 21:08:00,B04930P,Simpang Kemanggisan Ilir Raya,-6.193066,106.784647,15.0,4/30/2023 22:35,3500.0
BRQH919B4F58ZZ,4200130000000.0,online,Edi Setiawan,F,1997,JAK.45,Lebak Bulus - Ragunan,0,B02129P,Lebak Bulus Jak Lingko,-6.289301,106.77299,0,2023-04-30 13:36:00,B00425P,Gg. Borobudur Ragunan,-6.306803,106.81679,41.0,4/30/2023 14:24,0.0
JUVY939S1X93QK,3561930000000000.0,dki,Harsaya Manullang,F,1981,JAK.20,Cawang UKI - Lubang Buaya,0,B04021P,Sbr. Masjid Al Fida Komodor Halim,-6.262977,106.88503,11,2023-04-30 15:38:00,B00092P,Bacang Lubang Buaya,-6.288956,106.89696,36.0,4/30/2023 16:19,0.0
ADSX326V8K09JE,639013000000.0,flazz,"Dwi Widiastuti, S.Gz",M,1950,M6,Ragunan - MH Thamrin,0,P00073,GOR Sumantri,-6.221618,106.832245,7,2023-04-30 08:40:00,P00199,Ragunan,-6.305769,106.81949,20.0,4/30/2023 10:39,3500.0
DHNR994C9X76HD,4959610000000.0,online,Purwadi Halimah,F,1970,JAK.15,Bulak Turi - Tanjung Priok,0,B02949P,Port Medical Center,-6.110114,106.88939,49,2023-04-30 20:48:00,B05728P,Term. Tj. Priok 1,-6.1098,106.88118,52.0,4/30/2023 21:51,0.0
FZUN540C0V18GI,213153000000000.0,emoney,Drs. Wirda Anggraini,M,1993,JAK.43C,Sarana Jaya - Tebet Eco Park (TEP) - Stasiun Cawang,0,B06671P,Sbr. Jln.Tebet Barat Raya,-6.233911,106.85073,1,2023-04-30 07:17:00,B06674P,Tebet Eco Park Selatan 4,-6.239215,106.8519,4.0,4/30/2023 8:42,0.0
OMQR622V9C96MH,348950000000000.0,emoney,Tgk. Daliman Purnawati,F,1992,JAK.03,Lebak Bulus - Andara,0,B04651P,Sekolah Purba Adhika 2,-6.311017,106.78548,14,2023-04-30 15:26:00,B01106P,Jln. H. Ipin,-6.311098,106.79357,19.0,4/30/2023 16:53,0.0
QUFW044H7L65JS,4881500000000000.0,dki,dr. Syahrini Dabukke,F,1984,,,0,B05214P,Simpang Warakas III,-6.118043,106.88086,11,2023-04-30 07:26:00,B03863P,Sbr. Jln. Swasembada Barat VIII,-6.123873,106.88497,16.0,4/30/2023 8:44,0.0
DFHB399D3Z34EL,6567940000000000.0,dki,"Nasrullah Mangunsong, S.T.",M,1981,L13E,Puri Beta - Kuningan (Express),0,P00160,Patra Kuningan,-6.232677,106.832087,6,2023-04-30 08:44:00,P00222,Setiabudi Utara,-6.209189,106.830237,11.0,4/30/2023 9:06,3500.0
ECMA488R2D36BJ,6011030000000000.0,dki,"Joko Marpaung, M.Farm",F,2008,JAK.35,Pangkalan Jati - Rawamangun,1,B00924P,Jln. Belanak III Rawamangun,-6.202063,106.89159,5,2023-04-30 07:38:00,B02966P,Pos Rw 06 Pondok Bambu,-6.229454,106.90441,19.0,4/30/2023 8:09,0.0
VGOC273Z0K16OO,345704000000000.0,emoney,Dt. Jati Sihombing,M,1970,9E,,0,P00190,Ps. Palmerah,-6.207817,106.79695,11,2023-04-30 10:34:00,P00211,S Parman Podomoro City Arah Barat,-6.175587,106.79223,14.0,4/30/2023 11:12,3500.0
YBCU256G4G20XE,5117000000000000.0,dki,"dr. Nugraha Suartini, S.Psi",M,1987,7,Kampung Rambutan - Bidara Cina,0,P00156,Pasar Kramat Jati,-6.268822,106.86663,5,2023-04-30 21:06:00,P00016,BKN,-6.257751,106.87,7.0,4/30/2023 22:25,3500.0
QINY252E4B82NZ,3580900000000000.0,dki,R.A. Farah Suryatmi,M,2009,JAK.118,Taman Waduk Papanggo - Kota Tua,0,B06075P,SDN Sunter Agung 09,-6.127638,106.85898,5,2023-04-30 12:54:00,B00428P,Gg. Burung Dalam,-6.137017,106.82132,32.0,4/30/2023 14:17,0.0
KXQB711F7M24JV,348352000000000.0,emoney,Nilam Maryadi,M,1992,JAK.46,Pasar Minggu - Jagakarsa,0,B04322P,Sbr. SD Pelita Jati Padang,-6.287103,106.82924,29,2023-04-30 15:51:00,B01881P,Kec. Pasar Minggu,-6.285563,106.8353,31.0,4/30/2023 16:46,0.0
WEUQ448C1E01GG,4477920000000.0,online,Paulin Maulana,F,1986,8E,Bintaro - Blok M,1,B01154P,Jln. IKPN Bintaro,-6.25997,106.76787,19,2023-04-30 15:25:00,B00146P,Bintaro Kodam,-6.260196,106.76594,22.0,4/30/2023 15:44,3500.0
LQDU900S3R21DD,4.19006e+18,brizzi,"Satya Santoso, S.Gz",M,1989,JAK.48A,,1,B02558P,Pam Jaya DKI,-6.203455,106.80794,2,2023-04-30 12:20:00,B02320P,Masjid Jami Al Mamur Bukit Duri,-6.225059,106.85606,23.0,4/30/2023 13:51,
QLTH002B3C44LU,4052010000000000.0,dki,Karimah Uwais,M,2011,6N,Ragunan - Blok M via Kemang,1,B02876P,PLN Corporate University 2,-6.300935,106.82136,22,2023-04-30 18:14:00,P00199,Ragunan,-6.305769,106.81949,23.0,4/30/2023 20:06,3500.0
CESC234M7F91JX,30177800000000.0,bni,Cakrawangsa Pudjiastuti,F,1982,JAK.25,Kp. Rambutan - Kalisari,1,B04345P,Sbr. SDN Kalisari 01,-6.336199,106.85448,14,2023-04-30 21:27:00,B00901P,Jln. Baru Tanah Merdeka,-6.307818,106.87362,43.0,4/30/2023 23:27,0.0
LVRB150G1J06GY,180084000000000.0,emoney,Kuncara Prastuti,M,1996,M9,Pinang Ranti - Pluit,1,P00218,Senayan JCC Arah Timur,-6.214145,106.809,11,2023-04-30 11:53:00,P00252,Tegal Parang Arah Timur,-6.239005,106.83106,14.0,4/30/2023 13:39,3500.0
KPZE602V8W41AO,340700000000000.0,emoney,Candra Dongoran,F,1991,JAK.30,Grogol - Meruya via Roxy,0,B01362P,Jln. Manunggal Meruya Selatan,-6.203307,106.73894,53,2023-04-30 11:41:00,B00620P,Gerbang Tol Meruya Selatan 1,-6.20619,106.73882,54.0,4/30/2023 13:05,0.0
AGHV952Z4D80GA,589684000000.0,flazz,"Halima Puspasari, S.H.",M,2005,JAK.44,Andara - Stasiun Universitas Pancasila,1,B01472P,Jln. Pepaya V Jagakarsa,-6.320652,106.81847,21,2023-04-30 19:40:00,B05062P,Simpang Pepaya Sagu Raya,-6.317485,106.81909,22.0,4/30/2023 21:02,0.0
IUWX307B2T48NQ,30259800000000.0,bni,Dariati Simanjuntak,M,1966,M2,Pulo Gadung - Monas,1,P00207,RS Islam,-6.168676,106.87027,9,2023-04-30 13:31:00,P00163,Pedongkelan,-6.167962,106.88246,11.0,4/30/2023 14:19,3500.0
KJHH474I8W84VX,2284130000000000.0,dki,T. Karsana Halim,F,2003,14,Jakarta International Stadium - Senen,0,B01601P,Jln. Sukamulya III Harapan Mulya,-6.170439,106.8524,14,2023-04-30 19:51:00,B03201P,RSPAD 3,-6.175462,106.83922,18.0,4/30/2023 20:54,3500.0
AGLM745A2N73ON,349262000000000.0,emoney,Dr. Zahra Utami,F,2001,2H,Rusun Jati Rawasari - Senen,1,B03084P,Rawa Selatan 2,-6.173813,106.85771,7,2023-04-30 07:29:00,B04344P,Sbr. SDN Johar Baru 10,-6.181178,106.86028,13.0,4/30/2023 9:00,0.0
USMZ144J2D38LL,30404100000000.0,bni,Fitria Prasetya,F,1982,S21,Ciputat - CSW,0,P00186,Pondok Pinang,-6.28217,106.77204,13,2023-04-30 06:01:00,B02161P,LPP RRI 1,-6.252131,106.7913,25.0,4/30/2023 8:00,3500.0
OJAI614Y3V10PI,3517820000000000.0,dki,Drs. Vanya Hariyah,F,1995,14,Jakarta International Stadium - Senen,1,B01961P,Kemayoran Landas Pacu Timur 2,-6.152025,106.85383,9,2023-04-30 07:25:00,,,,,,,3500.0
UDVI953R4H99JX,4.55591e+18,brizzi,Wirda Uwais,M,2011,6D,Stasiun Tebet - Karet via Underpass,1,B02873P,Plaza Sentral,-6.216247,106.81676,14,2023-04-30 06:48:00,B00221P,Bundaran Senayan 1,-6.227445,106.80187,17.0,4/30/2023 8:04,3500.0
DVBR273R7N40RL,4.39991e+18,brizzi,Kania Nuraini,F,1989,2,Pulo Gadung - Monas,0,,Gambir 1,-6.174612,106.8304,15,2023-04-30 10:58:00,P00097,Juanda,-6.168048,106.83089,17.0,4/30/2023 12:18,3500.0
ZNVI151P3G61SF,373142000000000.0,emoney,"Tgk. Siska Siregar, M.Farm",F,1971,5B,Stasiun Tebet - BNN,1,B01804P,Kampung Melayu Besar 2,-6.225314,106.86292,6,2023-04-30 10:44:00,B05510P,St. Tebet 1,-6.225576,106.85862,7.0,4/30/2023 11:01,3500.0
ZPCB410S3Z75PI,6531920000000000.0,dki,Patricia Simbolon,M,1989,JAK.110A,Rusun Marunda - Terminal Terpadu Pulo Gebang,1,B04406P,Sbr. Sentra Timur,-6.205428,106.94771,3,2023-04-30 21:09:00,B05530P,STIP,-6.104402,106.95904,71.0,4/30/2023 21:38,0.0
ZWOW298J8T99NF,6011790000000000.0,dki,Gaiman Novitasari,F,2011,JAK.50,Kalideres - Puri Kembangan,0,B02614P,Ps. Hipli Semanan,-6.156838,106.70633,4,2023-04-30 18:12:00,B05799P,Transjakarta Pool Rawa Buaya,-6.159048,106.72692,35.0,4/30/2023 19:34,0.0
GJEO105J9E71ZS,4961960000000.0,online,Rahmi Narpati,F,1981,JAK.110A,Rusun Marunda - Terminal Terpadu Pulo Gebang,1,,Megasetia Agung Kimia,-6.156405,106.95565,29,2023-04-30 11:26:00,B02807P,Perumahan Grand Malaka Rorotan,-6.148925,106.95577,34.0,4/30/2023 13:04,0.0
SUJX852Q7F30FW,4.51949e+18,brizzi,"Tgk. Uchita Hutagalung, S.Farm",M,1993,M10,PGC 2 - Tanjung Priok,1,P00166,Pemuda Pramuka,-6.192795,106.87498,11,2023-04-30 05:23:00,P00267,Utan Kayu Rawamangun,-6.197515,106.87404,12.0,4/30/2023 6:21,3500.0
TNQX995V3D55XY,372925000000000.0,emoney,Vicky Prasetyo,F,2003,M5,Matraman Baru - Ancol,0,P00253,Tegalan,-6.203101,106.85715,4,2023-04-30 08:05:00,P00140,Pademangan,-6.133704,106.83164,14.0,4/30/2023 8:54,3500.0
OJHB172W2R74ZF,4105860000000.0,online,"Tasdik Mulyani, M.M.",F,1996,JAK.115,Term. Tj. Priok - Pegangsaan II IGI,0,B03162P,RS Pelabuhan Jakarta,-6.124553,106.9168,17,2023-04-30 14:54:00,B02376P,Masjid Raya Al Musyawarah Kelapa Gading,-6.154777,106.9091,32.0,4/30/2023 15:48,0.0
SBNQ654S8C98ZV,4481240000000000.0,dki,Edward Maheswara,F,1984,JAK.52,Terminal Kalideres - Terminal Muara Angke,0,B02219P,Margasatwa 1,-6.116038,106.76903,22,2023-04-30 08:35:00,B06045P,Galeri Niaga Mediterania 2,-6.116486,106.77142,23.0,4/30/2023 9:43,0.0
YEND792N0S64PP,30228700000000.0,bni,"Tgk. Raihan Sihombing, M.Farm",M,1993,JAK.71,Kampung Rambutan - Pinang Ranti,1,B03774P,Sbr. Jln. Man 2,-6.300742,106.88071,11,2023-04-30 20:08:00,B03109P,RPTRA Dukuh,-6.301412,106.87583,17.0,4/30/2023 21:10,0.0
OKQD201A8N61FD,3545530000000000.0,dki,Melinda Salahudin,M,1983,D11,Depok - BKN,0,B05520P,STIAMI 1,-6.377387,106.83318,4,2023-04-30 19:57:00,B04201P,Sbr. Pesona Square,-6.379679,106.84426,6.0,4/30/2023 20:56,3500.0
XTRT771U9R97MO,502033000000.0,flazz,Cut Putri Maulana,F,1981,JAK.118,Taman Waduk Papanggo - Kota Tua,1,B06081P,Sbr. BNN Jakarta Utara,-6.132604,106.86425,30,2023-04-30 09:22:00,B06681P,Waduk Papanggo,-6.127219,106.87284,33.0,4/30/2023 10:34,0.0
XTGH469A4T30BB,2602750000000000.0,dki,"R. Paramita Tamba, S.Sos",F,1994,,,1,B05936P,YPI Al Huda Kb. Jeruk,-6.202423,106.76924,24,2023-04-30 20:43:00,B05276P,SMAN 65,-6.200842,106.76904,25.0,4/30/2023 22:10,3500.0
HJZZ788F3K86YD,5129680000000000.0,dki,Cakrabuana Pratiwi,F,1986,JAK.117,Tanjung Priok - Tanah Merdeka,1,B02089P,KPP Pratama Koja,-6.130276,106.89903,14,2023-04-30 19:21:00,B02949P,Port Medical Center,-6.110114,106.88939,27.0,4/30/2023 20:10,0.0
WPIB053Z5H10UG,5356160000000000.0,dki,Mahfud Lailasari,M,1998,JAK.84,Terminal Kampung Melayu - Kapin Raya,1,B00140P,Billy Moon,-6.248271,106.93093,14,2023-04-30 12:48:00,B05707P,Term. Kampung Melayu 2,-6.224516,106.86685,49.0,4/30/2023 14:11,0.0
SINS935X9J43FO,213191000000000.0,emoney,Restu Hidayat,M,1990,14,Jakarta International Stadium - Senen,0,B03201P,RSPAD 3,-6.175462,106.83922,18,2023-04-30 18:02:00,B05725P,Term. Senen,-6.17356,106.84213,21.0,4/30/2023 19:02,3500.0
UHNN285X3G55NG,213145000000000.0,emoney,Hani Puspita,F,1995,10B,Rusun Cipinang Besar Selatan - Penas Kalimalang,1,B05784P,TPU Kb. Nanas 1,-6.23219,106.88051,5,2023-04-30 20:51:00,B03270P,Rusun Cipinang Besar Selatan,-6.231625,106.88288,6.0,4/30/2023 21:12,0.0
GKYM074M8X18IC,4843670000000.0,online,Lili Hutasoit,M,1993,JAK.75,Cililitan - Kp. Pulo,0,B01090P,Jln. H Emuntipala I,-6.27689,106.8773,28,2023-04-30 06:36:00,B03727P,Sbr. Jln. H. Sidan,-6.280408,106.88249,30.0,4/30/2023 7:50,0.0
ACBV046S2S82TD,3597250000000000.0,dki,"Alika Simbolon, S.Kom",M,2007,6A,Ragunan - MH Thamrin via Kuningan,1,P00047,Departemen Kesehatan,-6.228794,106.833205,6,2023-04-30 09:18:00,P00164,Pejaten,-6.278404,106.82972,14.0,4/30/2023 9:53,3500.0
CMDU125N0C16WU,213182000000000.0,emoney,Lintang Permata,F,1967,,,1,B02750P,Permata Eksekutif 2,-6.216798,106.76524,9,2023-04-30 17:03:00,B02802P,Perum Villa Kelapa Dua,-6.216674,106.76745,10.0,4/30/2023 18:38,3500.0
XTBH965T7Q68QR,6521360000000000.0,dki,Ir. Nasim Hutapea,M,1999,M11,Pulo Gebang - Pulo Gadung 2,0,P00102,Kampung Sumur,-6.214412,106.91189,6,2023-04-30 16:52:00,P00158,Pasar Pulo Gadung,-6.187434,106.90591,8.0,4/30/2023 18:46,3500.0
CLAY554V1N66EE,180015000000000.0,emoney,Dalimin Najmudin,M,1989,2Q,Gondangdia - Balai Kota,0,B06053P,Selatan St. Gondangdia,-6.187059,106.8329,0,2023-04-30 09:35:00,B00184P,BRI Menteng,-6.186792,106.83514,2.0,4/30/2023 10:13,3500.0
TSQK156D6I57KZ,4.16427e+18,brizzi,Maras Manullang,M,1976,4F,Pinang Ranti - Pulo Gadung,1,B02478P,Monumen Pancasila Sakti,-6.284861,106.90456,41,2023-04-30 14:17:00,B02608P,Ps. Gardu,-6.289962,106.89317,45.0,4/30/2023 16:01,3500.0
GQYS919B6G43UC,3500380000000000.0,dki,"Queen Prasetyo, S.Farm",M,1969,8A,Jelambar - Juanda,0,P00212,S Parman Podomoro City Arah Timur,-6.175799,106.79308,2,2023-04-30 09:50:00,P00209,RS Tarakan,-6.171146,106.81011,4.0,4/30/2023 11:15,3500.0
IYJC803V0P57HV,4789540000000000.0,dki,Embuh Suryono,F,2010,JAK.115,Term. Tj. Priok - Pegangsaan II IGI,0,B01252P,Jln. Kelapa Nias IV,-6.152909,106.90938,31,2023-04-30 20:46:00,B06601P,Jln. Pegangsaan Dua 7,-6.17285,106.91792,37.0,4/30/2023 21:49,0.0
RXCI980E4H05AZ,5298540000000000.0,dki,Bakianto Ramadan,F,2010,9D,Pasar Minggu - Tanah Abang,1,B05687P,Tegal Parang 1,-6.239791,106.83149,17,2023-04-30 12:11:00,B01837P,Karet Sudirman 3,-6.212197,106.81995,30.0,4/30/2023 13:52,3500.0
HEXG417C8I66GR,4285060000000.0,online,"drg. Tina Prayoga, S.H.",M,1986,JAK.38,Bulak Ringin - Kampung Rambutan,1,B05673P,Tanah Merdeka 1,-6.30813,106.8745,3,2023-04-30 19:16:00,B03910P,Sbr. Kel. Cibubur,-6.349555,106.87674,34.0,4/30/2023 21:12,0.0
WEZG304A1E22YH,3599440000000000.0,dki,"Puti Nova Maryadi, M.TI.",M,2008,L13E,Puri Beta - Kuningan (Express),1,P00124,Latuharhary,-6.202761,106.82771,0,2023-04-30 17:51:00,P00198,Puri Beta 2,-6.230532,106.72371,11.0,4/30/2023 18:34,3500.0
BZGU699B7X99GC,3514120000000000.0,dki,Yulia Zulkarnain,F,2010,JAK.11,Tanah Abang - Kebayoran Lama,1,B03917P,Sbr. Kel. Grogol Utara,-6.208439,106.78927,23,2023-04-30 19:25:00,B01442P,Jln. Palmerah Utara I,-6.202107,106.79887,30.0,4/30/2023 21:18,0.0
MTFO729Q7M44BN,4.369e+18,brizzi,Akarsana Sihombing,M,1999,JAK.13,Tanah Abang - Jembatan Lima,1,B01647P,Jln. Tambora VI,-6.141703,106.80777,9,2023-04-30 09:00:00,B02830P,Pharmin,-6.182988,106.81306,30.0,4/30/2023 9:26,0.0
PORU244Y0J01CK,180002000000000.0,emoney,"T. Parman Kuswandari, M.Ak",M,1997,JAK.16,Cililitan - Condet,1,B01903P,Kel. Batu Ampar,-6.283309,106.85943,19,2023-04-30 20:52:00,B00410P,Gg. Ayama,-6.27204,106.8671,29.0,4/30/2023 21:15,0.0
MUJE740I4P64SG,180005000000000.0,emoney,"Hana Yulianti, S.Ked",F,1992,10H,Tanjung Priok - Blok M,0,P00133,Masjid Agung,-6.236483,106.79845,15,2023-04-30 19:41:00,P00112,Kejaksaan Agung,-6.2405,106.79844,16.0,4/30/2023 20:10,3500.0
FEYO019H5G19SQ,4719260000000.0,online,Najwa Hidayat,F,1994,1A,Pantai Maju - Balai Kota,1,P00098,Kali Besar Barat,-6.135355,106.81143,7,2023-04-30 12:38:00,B00386P,Galeri Niaga Mediterania 1,-6.116646,106.77135,19.0,4/30/2023 14:35,3500.0
IOSQ103U0C33ZG,4.86035e+18,brizzi,Lala Utami,F,1985,4,Pulo Gadung 2 - Tosari,1,P00135,Matraman 2,-6.19891,106.8545,4,2023-04-30 09:32:00,P00193,Pulo Gadung 2,-6.183098,106.90872,16.0,4/30/2023 10:40,3500.0
EMGT518A4E48NW,180003000000000.0,emoney,Garan Sudiati,M,2011,M11,Pulo Gebang - Pulo Gadung 2,1,P00020,Buaran,-6.215132,106.91768,3,2023-04-30 08:12:00,P00174,Perumnas Klender,-6.216689,106.93054,5.0,4/30/2023 10:07,3500.0
DYJU031T6Y43QP,3577030000000000.0,dki,Cut Diah Latupono,F,1993,JAK.86,Term. Rawamangun - Term. Manggarai,1,B06552P,Jln. Pisangan Baru Utara 1,-6.208584,106.86702,10,2023-04-30 14:31:00,B06555P,Universitas Terbuka,-6.201686,106.87294,14.0,4/30/2023 15:22,0.0
ZHUL836D8Z26YH,4561350000000000.0,dki,Jamalia Yuliarti,M,1985,B21,Bekasi Timur - Cawang,1,B00715P,Groserindo,-6.249011,107.01686,11,2023-04-30 09:25:00,P00255,Terminal Bekasi,-6.249502,107.01339,12.0,4/30/2023 11:18,3500.0
UUCW691V5J10JJ,4.5891e+18,brizzi,"R. Michelle Hardiansyah, S.E.I",M,2005,JAK.36,Cilangkap - Cililitan,0,B04051P,Sbr. Masjid H. Andi Muhammad Ghalib,-6.312385,106.89055,19,2023-04-30 20:31:00,B01369P,Jln. Masjid Al Ihsan,-6.280339,106.87117,49.0,4/30/2023 20:55,0.0
SGQP235Z9O89FB,4169090000000000.0,dki,Jasmin Hutapea,M,1991,,,1,P00159,Pasar Rumput,-6.207125,106.84112,17,2023-04-30 21:40:00,P00132,Manggarai,-6.20888,106.84739,18.0,4/30/2023 23:13,3500.0
EPMQ309X9M13BV,4170310000000000.0,dki,Ella Nasyiah,F,2012,6V,Ragunan - Gelora Bung Karno,1,P00079,Imigrasi,-6.256977,106.82808,9,2023-04-30 16:59:00,P00024,Buncit Indah,-6.274333,106.83029,11.0,4/30/2023 18:56,3500.0
RMOA548L3M89ZN,375314000000000.0,emoney,Rini Nugroho,F,1971,JAK.25,Kp. Rambutan - Kalisari,0,B00870P,Jln. Asem Cijantung,-6.326133,106.86322,16,2023-04-30 14:07:00,B04831P,Simpang H. Jumat Kalisari,-6.335765,106.85376,39.0,4/30/2023 15:17,0.0
RWRJ229I1L59HJ,4959030000000.0,online,"R.M. Karsana Mustofa, S.Pt",F,2000,11D,Pulo Gebang - Pulo Gadung 2 via PIK,0,B01806P,Kampung Padaengan 1,-6.189361,106.93472,27,2023-04-30 06:51:00,P00191,PTC Pulo Gadung,-6.182622,106.91561,32.0,4/30/2023 7:30,3500.0
GNCO222J1U01BU,3533170000000000.0,dki,Martani Putra,M,2006,13C,Puri Beta - Dukuh Atas,0,P00198,Puri Beta 2,-6.230532,106.72371,0,2023-04-30 15:01:00,P00001,Adam Malik,-6.236466,106.74786,2.0,4/30/2023 16:14,3500.0
WXOP414U7G09WF,180069000000000.0,emoney,"Maimunah Yuliarti, S.E.",M,1977,JAK.07,Tanah Abang - Grogol via Tawakal,1,B03385P,SDN Kota Bambu 03,-6.188023,106.80801,28,2023-04-30 07:40:00,B02505P,Museum Textile,-6.188656,106.80954,29.0,4/30/2023 8:54,0.0
WYBY194D7A43LC,4908480000000000.0,dki,Kartika Haryanti,M,1995,1,Blok M - Kota,1,P00112,Kejaksaan Agung,-6.2405,106.79844,20,2023-04-30 21:46:00,P00017,Blok M,-6.243312,106.80175,21.0,4/30/2023 22:10,3500.0
PJYQ241K8M61NV,3514380000000000.0,dki,Zelda Maryadi,M,1979,JAK.07,Tanah Abang - Grogol via Tawakal,0,B05669P,Tanah Abang Blok G,-6.18865,106.81293,7,2023-04-30 11:56:00,B02981P,Pospol Tomang 2,-6.174341,106.80489,36.0,4/30/2023 13:02,0.0
IOAJ301X8H71HJ,2539490000000000.0,dki,"Ratna Sirait, S.Pd",F,1994,6M,Stasiun Manggarai - Blok M,1,P00071,Gelora Bung Karno,-6.224217,106.8058,4,2023-04-30 15:44:00,P00159,Pasar Rumput,-6.207125,106.84112,17.0,4/30/2023 16:09,3500.0
PPFP668V8H88RC,3523930000000000.0,dki,drg. Raina Hardiansyah,M,1971,,Tanjung Priok - Plumpang,0,B01634P,Jln. Swasembada Timur XV,-6.121072,106.88852,23,2023-04-30 15:07:00,B01059P,Jln. Flamboyan Berdikari,-6.120868,106.89439,28.0,4/30/2023 15:35,0.0
ZBVD617S2A49WE,676286000000.0,flazz,"R.A. Raina Natsir, M.M.",F,1974,5,Matraman Baru - Ancol,0,P00109,Matraman Baru,-6.21288,106.86115,0,2023-04-30 14:30:00,P00140,Pademangan,-6.133704,106.83164,13.0,4/30/2023 15:33,3500.0
LZUX230G1Y31RQ,5554500000000000.0,dki,T. Jinawi Kusumo,F,1997,8M,S. Parman - Tanah Abang,1,B01663P,Jln. Tj. Gedong,-6.166664,106.79388,15,2023-04-30 11:13:00,B05843P,Univ. Trisakti,-6.168658,106.7885,18.0,4/30/2023 11:58,3500.0
PXFG389X0O65AG,4533390000000000.0,dki,Rahmi Gunarto,F,1976,9E,,1,P00212,S Parman Podomoro City Arah Timur,-6.175799,106.79308,3,2023-04-30 16:35:00,,,,,,,3500.0
YSTQ449Q6C70WU,6011670000000000.0,dki,Kasiran Nasyiah,M,1999,JAK.86,Term. Rawamangun - Term. Manggarai,1,B06555P,Universitas Terbuka,-6.201686,106.87294,14,2023-04-30 05:43:00,B06559P,GI Pulo Mas,-6.201197,106.88038,18.0,4/30/2023 7:06,0.0
EPDO856Z6N14EO,589922000000.0,flazz,drg. Nalar Yuliarti,F,1987,S31,,1,B03177P,RS Siloam,-6.292071,106.78467,3,2023-04-30 08:45:00,B00229P,Carrefour Lebak Bulus,-6.287529,106.7768,4.0,4/30/2023 10:15,20000.0
TDHB662R7S82AI,6583630000000000.0,dki,Drs. Jasmani Maheswara,M,1992,7B,Kampung Rambutan - Blok M,0,B00830P,Jakarta Islamic Hospital,-6.299909,106.86966,10,2023-04-30 12:59:00,P00153,Pasar Induk Kramat Jati,-6.294215,106.87203,12.0,4/30/2023 13:46,3500.0
RWMQ137Z0N33OK,4539900000000.0,online,Sakura Yuniar,M,1980,JAK.32,Lebak Bulus - Petukangan,0,B02009P,Kolong Tol Jakarta Serpong 1,-6.256082,106.76049,19,2023-04-30 08:30:00,B00409P,Gg. Asmat Petukangan,-6.244316,106.752,40.0,4/30/2023 9:19,0.0
TJBN290I2I57YN,4475600000000000.0,dki,Diah Rajasa,M,1982,JAK.35,Pangkalan Jati - Rawamangun,0,B04157P,Sbr. Ps. Klender,-6.212317,106.9009,22,2023-04-30 21:06:00,B05798P,Transjakarta Pool Klender,-6.205191,106.90301,26.0,4/30/2023 22:59,0.0
HICQ121A1C55QW,4.5938e+18,brizzi,Kala Pangestu,F,2010,1,Blok M - Kota,0,P00051,Dukuh Atas,-6.205702,106.82223,8,2023-04-30 21:22:00,P00291,Harmoni Arah Utara,-6.162678,106.819663,14.0,4/30/2023 22:24,3500.0
HKXF537P5Z31YZ,3569650000000000.0,dki,"dr. Faizah Firmansyah, S.T.",F,2005,2,Pulo Gadung - Monas,1,P00202,Rawa Selatan,-6.173925,106.85809,6,2023-04-30 19:59:00,P00192,Pulo Gadung 1,-6.183239,106.90907,15.0,4/30/2023 21:47,3500.0
INMV867B1W64DM,6526710000000000.0,dki,Sakti Situmorang,F,1993,B13,Bekasi Barat - Blok M,0,B01852P,Kayuringin 1,-6.245825,106.99277,2,2023-04-30 10:11:00,B05482P,St. MRT Asean 1,-6.23844,106.79858,10.0,4/30/2023 11:34,20000.0
FXQE844I5C16WR,4340000000000000.0,dki,"Halima Suryono, S.T.",M,1979,11,Pulo Gebang - Matraman,0,,Jatinegara RS Premier,-6.221412,106.86807,14,2023-04-30 18:16:00,P00134,Matraman 1,-6.19998,106.85443,18.0,4/30/2023 18:36,3500.0
NDFB853V9R76DD,4.69019e+18,brizzi,"Zulfa Purnawati, S.Pd",M,1983,M6,Ragunan - MH Thamrin,0,P00222,Setiabudi Utara,-6.209189,106.830237,4,2023-04-30 10:40:00,P00047,Departemen Kesehatan,-6.228794,106.833205,8.0,4/30/2023 12:40,3500.0
TUNV436I0Z71BK,4535370000000000.0,dki,Ganjaran Saptono,F,2000,7E,Kampung Rambutan - Ragunan,0,B02868P,Plaza Oleos,-6.29771,106.82965,17,2023-04-30 06:41:00,,Ragunan,-6.305769,106.81949,21.0,4/30/2023 8:04,3500.0
KFHC499U1C33RG,375940000000000.0,emoney,"Gading Suwarno, S.I.Kom",M,1989,9A,PGC 2 - Grogol 2,0,P00065,Gatot Subroto Jamsostek Arah Barat,-6.233551,106.82208,12,2023-04-30 06:48:00,P00226,Slipi Kemanggisan Arah Utara,-6.189906,106.79694,16.0,4/30/2023 7:13,3500.0
MUCW818V3V22PG,4774290000000.0,online,Muhammad Permadi,F,1986,9,Pinang Ranti - Pluit,0,P00179,Pinang Ranti,-6.291075,106.88634,0,2023-04-30 19:09:00,P00211,S Parman Podomoro City Arah Barat,-6.175587,106.79223,18.0,4/30/2023 19:47,3500.0
PGEZ024H3O67QJ,6011040000000000.0,dki,Carub Saragih,F,1988,JAK.18,Kalibata - Kuningan,0,B05865P,Waduk Setiabudi Jln. Gembira,-6.205469,106.82993,56,2023-04-30 12:32:00,B00034P,Allianz,-6.209233,106.83076,58.0,4/30/2023 13:32,0.0
AGVQ009O2O30KJ,3584870000000000.0,dki,Hendra Andriani,M,2001,D11,Depok - BKN,0,B05520P,STIAMI 1,-6.377387,106.83318,4,2023-04-30 13:47:00,B00805P,Ir H Djuanda,-6.381864,106.86551,10.0,4/30/2023 14:50,3500.0
BTEL233W2J96WM,639019000000.0,flazz,Jaeman Kusumo,F,1990,L13E,Puri Beta - Kuningan (Express),1,P00120,Kuningan Madya,-6.21341,106.8305,2,2023-04-30 14:49:00,P00044,CSW 1,-6.23994,106.79843,8.0,4/30/2023 16:30,3500.0
BNKC567S3W82UL,4.42238e+18,brizzi,Suci Utami,M,1978,M4,Pulo Gadung 2 - Dukuh Atas 2,1,P00167,Pemuda Rawamangun,-6.193488,106.89165,11,2023-04-30 15:06:00,P00263,TU Gas,-6.19241,106.90489,13.0,4/30/2023 15:25,3500.0
HEGC311H3M60RC,379045000000000.0,emoney,Panji Simanjuntak,M,1978,12,Tanjung Priok - Pluit,1,P00141,Pakin,-6.127982,106.80474,2,2023-04-30 21:22:00,P00046,Danau Agung,-6.146869,106.85805,11.0,4/30/2023 22:46,3500.0
UKNZ786U1Q69DY,374582000000000.0,emoney,Ganda Yuniar,M,1976,JAK.85,Bintara - Cipinang Indah,0,B01997P,Klinik Sapta Mitra,-6.230813,106.93469,14,2023-04-30 07:36:00,B03058P,Puskesmas Malaka Sari,-6.2306,106.92955,17.0,4/30/2023 8:35,0.0
BZTH787N3Z26DZ,3571140000000000.0,dki,"dr. Zelaya Hutasoit, S.Sos",M,2012,9E,,1,B05224P,Simprug 2,-6.225306,106.78929,16,2023-04-30 19:44:00,,Pasar Kebayoran Lama,-6.238413,106.78323,20.0,4/30/2023 21:32,3500.0
RZIG721R9Q57BK,348762000000000.0,emoney,Koko Suryono,M,2008,7F,Kampung Rambutan - Juanda via Pasar Baru,1,P00105,Kayu Putih Rawasari,-6.187453,106.87542,9,2023-04-30 17:17:00,P00247,Tanah Merdeka Arah Timur,-6.307866,106.87389,15.0,4/30/2023 17:54,3500.0
OBJK784E7O08QJ,571860000000.0,flazz,"Cindy Namaga, S.Psi",M,1983,L13E,Puri Beta - Kuningan (Express),0,P00103,Karet Kuningan,-6.21667,106.830737,9,2023-04-30 14:59:00,P00124,Latuharhary,-6.202761,106.82771,12.0,4/30/2023 16:49,3500.0
RJDX826Y5A28FP,3505800000000000.0,dki,Dr. Cemeti Halim,M,1994,JAK.27,Pulo Gebang - Rorotan,1,B01289P,Jln. Komarudin Timur Lingkar Timur,-6.196226,106.94401,37,2023-04-30 11:18:00,B00415P,Gg. Barokah Lingkar Timur,-6.19658,106.94405,38.0,4/30/2023 13:03,0.0
TMMO681U4Z96DZ,180038000000000.0,emoney,Azalea Yuniar,M,2010,8K,,0,B03244P,Ruko Kemanggisan Raya,-6.196763,106.78222,11,2023-04-30 10:14:00,B04735P,Simpang Budi Sakti Raya,-6.188377,106.78328,13.0,4/30/2023 10:42,3500.0
FLJK886P4P38QV,342357000000000.0,emoney,Cakrawangsa Nashiruddin,M,1974,7D,Pancoran - Kampung Rambutan,1,B02502P,Museum Nasional VIsible Storage,-6.307188,106.89653,15,2023-04-30 11:44:00,P00101,Kampung Rambutan,-6.309885,106.88216,24.0,4/30/2023 13:43,3500.0
GGCV884W8L58GG,6011670000000000.0,dki,"Ir. Hardana Waskita, M.Kom.",F,1984,B11,Summarecon Bekasi - BNN,1,B01853P,Kayuringin 2,-6.245948,106.99247,3,2023-04-30 08:16:00,B00108P,Bandar Djakarta Bekasi,-6.227085,106.99683,5.0,4/30/2023 8:47,3500.0
VYJW187T3X01JD,503829000000.0,flazz,R.M. Gading Hutasoit,F,1981,13D,Puri Beta - Ragunan,1,P00242,Swadarma,-6.23755,106.76065,19,2023-04-30 05:24:00,P00198,Puri Beta 2,-6.230532,106.72371,22.0,4/30/2023 6:29,3500.0
ZAVJ097W6L60YR,4037510000000000.0,dki,"Ina Purnawati, S.Kom",M,1998,1B,Stasiun Palmerah - Tosari,1,B00322P,DPR MPR 2,-6.206314,106.80194,5,2023-04-30 13:16:00,P00230,St. Palmerah,-6.208908,106.79706,7.0,4/30/2023 14:04,3500.0
TKOH594F0B75IY,503810000000.0,flazz,Dwi Thamrin,M,1986,D21,,0,B05830P,Univ. Indonesia,-6.353357,106.83186,0,2023-04-30 06:05:00,B01809P,Kampus IISIP,-6.323176,106.83487,6.0,4/30/2023 7:31,3500.0
PFZF222U2W83XV,6011540000000000.0,dki,Among Puspita,F,1992,JAK.58,Cilincing - Rorotan,0,B02583P,Ps. Bebek Marunda 1,-6.110577,106.94804,27,2023-04-30 11:52:00,B04453P,Sbr. SMKN 4,-6.14141,106.95573,55.0,4/30/2023 13:45,0.0
JFPF167V7V91KI,3543300000000000.0,dki,Prayoga Jailani,F,2010,M13,Puri Beta 2 - Tendean,1,P00221,Seskoal,-6.238064,106.77121,6,2023-04-30 21:58:00,,,,,,,3500.0
UDKT711H3R18EX,213177000000000.0,emoney,Elvin Saputra,F,1981,JAK.48B,Stasiun Tebet - Kampung Melayu,1,B01804P,Kampung Melayu Besar 2,-6.225314,106.86292,6,2023-04-30 20:35:00,B05512P,St. Tebet 3,-6.225604,106.85923,7.0,4/30/2023 21:33,
YXFK916J3N14WF,4.71523e+18,brizzi,Joko Marbun,F,2005,JAK.43B,Tongtek - Tebet Eco Park (TEP) - Cililitan,0,B03995P,Sbr. Lapangan Blok O Pengadegan,-6.248518,106.85791,21,2023-04-30 19:18:00,B02827P,PGC,-6.261811,106.8643,27.0,4/30/2023 20:16,0.0
VHWW837J3P69DF,180057000000000.0,emoney,Ridwan Wulandari,F,2002,1T,Cibubur - Balai Kota,0,B00326P,Dukuh Atas 4,-6.204819,106.8221,8,2023-04-30 05:44:00,B03314P,MH Thamrin 2,-6.188238,106.82277,12.0,4/30/2023 7:12,20000.0
ZPYD661D2E80QL,501860000000.0,flazz,"Juli Pudjiastuti, M.M.",M,1975,S11,BSD - Jelambar,0,B01864P,Kb. Nanas,-6.221291,106.63364,22,2023-04-30 19:44:00,B05771P,Tol Kb. Jeruk 2,-6.189835,106.76681,24.0,4/30/2023 20:20,3500.0
XDIJ252E1R54SS,4539880000000000.0,dki,Dian Wasita,M,1985,M8,Lebak Bulus - Pasar Baru,1,P00212,S Parman Podomoro City Arah Timur,-6.175799,106.79308,19,2023-04-30 11:43:00,P00260,Tomang Mandala,-6.176875,106.80037,20.0,4/30/2023 13:20,3500.0
WRFC791W6D38ZN,6562310000000000.0,dki,"Drs. Jinawi Marpaung, S.Psi",M,1981,D21,Universitas Indonesia - Lebak Bulus,1,B03069P,RA Kartini,-6.282151,106.77315,3,2023-04-30 13:48:00,B05259P,SMAN 109,-6.344687,106.83351,34.0,4/30/2023 15:26,3500.0
YQIE173E8C92OW,30328100000000.0,bni,Diah Rahayu,F,2012,9F,Rusun Tambora - Pluit,0,P00125,Latumeten Stasiun Grogol Arah Selatan,-6.160376,106.79097,2,2023-04-30 14:38:00,P00170,Penjaringan,-6.126306,106.79203,7.0,4/30/2023 15:47,0.0
MBQK616K2I26KY,60462617576.0,flazz,Edward Dabukke,M,1988,3H,Jelambar - Kota,1,P00176,Petojo,-6.169984,106.81698,6,2023-04-30 17:20:00,P00087,Jelambar,-6.166548,106.78651,8.0,4/30/2023 19:20,
AKQU297R1R37LI,180038000000000.0,emoney,"dr. Warsita Kuswoyo, M.Kom.",M,2007,JAK.14,Tanah Abang - Meruya,1,B00063P,Aries Utama III,-6.197454,106.74602,10,2023-04-30 21:49:00,B04502P,Sbr. SPBU Meruya Ilir,-6.197275,106.75357,13.0,4/30/2023 23:29,0.0
VOPB269N2Q02ZG,4348540000000.0,online,Carla Wacana,F,1983,JAK.32,Lebak Bulus - Petukangan,0,B04795P,Simpang Deplu Veteran Raya,-6.271822,106.76451,10,2023-04-30 17:42:00,B00147P,Bintaro Park VIew,-6.257977,106.75969,21.0,4/30/2023 19:16,0.0
FTWJ787Z2I68KY,4.0419e+18,brizzi,Umay Sitompul,F,1988,8D,Joglo - Blok M,1,B00512P,Gg. Marang,-6.217246,106.74855,2,2023-04-30 06:46:00,B04708P,Simpang Arteri Kebayoran Lama,-6.219148,106.77902,14.0,4/30/2023 8:13,3500.0
KOUW348B7O76MA,4.95785e+18,brizzi,Dr. Kamaria Pradipta,F,1981,1K,Cibubur Junction - Blok M,0,B00221P,Bundaran Senayan 1,-6.227445,106.80187,7,2023-04-30 13:32:00,,Blok M Jalur 4,-6.243474,106.80188,9.0,4/30/2023 14:13,20000.0
PPEN683M9P11HZ,4431270000000.0,online,Balijan Damanik,M,1978,7B,Kampung Rambutan - Blok M,0,P00156,Pasar Kramat Jati,-6.268822,106.86663,20,2023-04-30 16:58:00,B06577P,Blok M Jalur 2,-6.243369,106.80188,41.0,4/30/2023 17:28,3500.0
FIYC325P2N46PF,4262050000000000.0,dki,Puti Restu Sitompul,F,2003,JAK.44,Andara - Stasiun Universitas Pancasila,1,B06842P,Jl. M. Khafi,-6.311739,106.813142,28,2023-04-30 13:08:00,B06823P,Jln. Pringgondani,-6.310813,106.806964,32.0,4/30/2023 13:34,0.0
CRHO074B2Z81PP,584221000000.0,flazz,"Muni Wibisono, M.TI.",F,2009,10A,Rusun Marunda - Tanjung Priok,1,B00137P,Bidara 2,-6.106075,106.95942,3,2023-04-30 09:52:00,B03282P,Rusun Marunda,-6.097099,106.96231,7.0,4/30/2023 10:28,0.0
CZLZ263F7A52QD,4401880000000.0,online,"Hj. Dina Sudiati, S.Kom",F,2002,6P,Cibubur - Kuningan,1,B02756P,Perpustakaan Umum Daerah,-6.222302,106.83261,7,2023-04-30 08:41:00,B02697P,Patra Kuningan 1,-6.233264,106.8318,12.0,4/30/2023 10:36,20000.0
GWNI353E0S75BL,4.70772e+18,brizzi,Johan Simbolon,M,1990,8A,Jelambar - Juanda,1,P00260,Tomang Mandala,-6.176875,106.80037,4,2023-04-30 10:51:00,P00211,S Parman Podomoro City Arah Barat,-6.175587,106.79223,5.0,4/30/2023 12:35,3500.0
FVKW100A3C93LJ,30214500000000.0,bni,Lala Hutasoit,F,1992,1M,Meruya - Blok M,0,B00062P,Aries Utama,-6.197385,106.75145,6,2023-04-30 10:10:00,B01137P,Jln. H. Rohimin Swadarma,-6.232466,106.76069,24.0,4/30/2023 11:26,3500.0
LZEN714R6L64CV,370069000000000.0,emoney,"Amalia Prabowo, M.Farm",M,1981,S11,BSD - Jelambar,1,B00078P,Astek,-6.291175,106.66598,22,2023-04-30 07:38:00,B06904P,Ruko Madrid,-6.301984,106.684385,26.0,4/30/2023 9:02,3500.0
PAIB042P4T44XP,3523380000000000.0,dki,Victoria Lazuardi,M,1984,R1A,Pantai Maju - Kota,0,B02361P,Masjid Luar Batang,-6.126266,106.8044,31,2023-04-30 16:12:00,B04951P,Simpang Kopi Roa Malaka,-6.134185,106.80986,36.0,4/30/2023 17:04,3500.0
BWBW485D1B92JH,4184480000000000.0,dki,T. Johan Mangunsong,F,2011,1B,Stasiun Palmerah - Tosari,1,B00321P,DPR MPR 1,-6.208517,106.80379,4,2023-04-30 09:21:00,B00322P,DPR MPR 2,-6.206314,106.80194,5.0,4/30/2023 10:23,3500.0
QFFG447O1A81KM,2703730000000000.0,dki,Sidiq Prasasta,M,1998,M8,Lebak Bulus - Pasar Baru,0,P00147,Pasar Baru,-6.166129,106.83483,0,2023-04-30 18:32:00,P00245,Tanah Kusir Kodim,-6.256997,106.78168,20.0,4/30/2023 19:51,3500.0
USHY098M9D98BP,4968790000000.0,online,"KH. Dimaz Aryani, S.H.",F,2009,11M,Rusun Rawa Bebek - Bukit Duri,0,B02240P,Masjid Al Hidayah,-6.216385,106.86296,14,2023-04-30 17:25:00,B02272P,Masjid As Sudairi,-6.220626,106.8591,15.0,4/30/2023 19:07,0.0
ZCOY086N9I06HQ,3566650000000000.0,dki,Kani Zulaika,F,2008,6,Ragunan - Dukuh Atas 2,0,P00222,Setiabudi Utara,-6.209189,106.830237,16,2023-04-30 16:07:00,P00298,Dukuh Atas 2,-6.204494,106.823327,18.0,4/30/2023 17:14,3500.0
CLPM985Y6N62QA,3596280000000000.0,dki,"Tgk. Hana Sitompul, S.Psi",F,1987,JAK.84,Terminal Kampung Melayu - Kapin Raya,0,B01323P,Jln. Limo Jatinegara Timur,-6.223388,106.86808,2,2023-04-30 09:02:00,B05792P,TPU Rawabunga,-6.224528,106.8705,4.0,4/30/2023 9:19,0.0
HJMP286G9W56CY,4952750000000000.0,dki,Catur Najmudin,M,1993,JAK.46,Pasar Minggu - Jagakarsa,0,B01228P,Jln. Kebembem,-6.338355,106.82263,7,2023-04-30 17:09:00,B04257P,Sbr. Puskesmas Pasar Minggu,-6.320987,106.82535,14.0,4/30/2023 17:58,0.0
CGRS975L7R58AX,4.79435e+18,brizzi,Darmanto Haryanto,M,1984,S12,BSD Serpong - Fatmawati,1,B05488P,St. MRT Fatmawati,-6.292589,106.7936,0,2023-04-30 20:12:00,B05701P,Term. BSD,-6.306375,106.68536,4.0,4/30/2023 20:56,20000.0
UOCA082Z0B44JL,6500700000000000.0,dki,Shania Mandasari,F,1985,6Q,Dukuh Atas - Casablanca via Epicentrum Raya,0,B05643P,Taman Rasuna Tower 10,-6.218581,106.83599,9,2023-04-30 20:39:00,B03396P,Kota Kasablanka,-6.224688,106.84246,11.0,4/30/2023 21:55,3500.0
YXCG094Y2A91DK,4.28146e+18,brizzi,"T. Ganda Hasanah, S.Pt",F,1984,10,Tanjung Priok - PGC 2,1,P00274,Yos Sudarso Kodamar,-6.162043,106.88169,15,2023-04-30 15:48:00,P00272,Walikota Jakarta Utara Arah Utara,-6.118842,106.89314,18.0,4/30/2023 16:05,3500.0
LXBK870M1C66EF,3528130000000000.0,dki,Dr. Julia Damanik,F,2005,7Q,Blok M - PGC,1,B00155P,BKN 2,-6.258262,106.86984,4,2023-04-30 19:55:00,B05744P,Tirtayasa 1,-6.239279,106.80756,29.0,4/30/2023 20:56,3500.0
XQPY951H7L39WI,3522280000000000.0,dki,Kamidin Hidayat,F,1988,12P,St. LRT Pegangsaan Dua - JIS,1,B06076P,Sbr. SDN Sunter Agung 09,-6.127635,106.85913,2,2023-04-30 14:22:00,B02156P,Lotte Mart Kelapa Gading,-6.154215,106.89467,10.0,4/30/2023 14:52,3500.0
NKRE967K0J08RI,5200940000000000.0,dki,Jinawi Saragih,M,1995,JAK.35,,0,B06177P,Pool Pangkalan Jati,-6.248386,106.91713,0,2023-04-30 07:33:00,B03133P,RS Duren Sawit,-6.229777,106.90969,14.0,4/30/2023 8:04,0.0
AHQL073D1E76GN,4.97185e+18,brizzi,"Bakidin Kusumo, S.H.",M,2000,11C,Rusun Pinus Elok - Rusun Pulo Gebang,0,B03287P,Rusun Pinus Elok Blok A,-6.201272,106.93757,0,2023-04-30 11:01:00,B00396P,Gg. Aim 2,-6.200395,106.93515,2.0,4/30/2023 11:50,0.0
QXKO360Y6D90AZ,180014000000000.0,emoney,Nrima Widodo,F,1992,JAK.120,JIS - Terminal Muara Angke,1,B04951P,Simpang Kopi Roa Malaka,-6.134185,106.80986,14,2023-04-30 08:03:00,B02564P,Pangeran Jayakarta 1,-6.137775,106.81766,20.0,4/30/2023 9:49,0.0
YSPC534M9Q28ON,4791070000000000.0,dki,Bakidin Puspasari,F,1992,12C,Rusun Waduk Pluit - Penjaringan,0,B05405P,SPBU Gedong Panjang,-6.130757,106.80557,6,2023-04-30 14:36:00,B05080P,Simpang Pluit Raya,-6.127123,106.80441,8.0,4/30/2023 15:36,0.0
TZGE103X9C18EW,676158000000.0,flazz,Drs. Slamet Putra,F,2002,13C,Puri Beta - Dukuh Atas,1,P00001,Adam Malik,-6.236466,106.74786,16,2023-04-30 12:36:00,P00198,Puri Beta 2,-6.230532,106.72371,17.0,4/30/2023 12:54,3500.0
WQNA036J1H01AE,4461700000000000.0,dki,"Balamantri Manullang, S.E.",F,1993,M1H,Tanah Abang - St. Gondangdia,0,B06053P,Selatan St. Gondangdia,-6.187059,106.8329,1,2023-04-30 16:34:00,B01232P,Jln. Kb. Kacang VIII,-6.187181,106.81827,8.0,4/30/2023 17:53,
MWNU884O3K05FS,4186700000000000.0,dki,"Bala Marbun, M.M.",M,1965,JAK.33,Pulo Gadung - Kota,1,B01404P,Jln. Mokmer 1,-6.149426,106.83966,30,2023-04-30 18:03:00,B00351P,Flyover HBR Motik 1,-6.152627,106.84989,34.0,4/30/2023 18:23,0.0
KVRP528G4Q70ZZ,379039000000000.0,emoney,Puti Rini Hartati,F,1999,T11,Poris Plawad - Bundaran Senayan,0,,St. Tanah Tinggi 1,-6.175601,106.6465,4,2023-04-30 05:51:00,B02056P,Komplek Pemda 1,-6.212493,106.61943,13.0,4/30/2023 7:21,3500.0
OVNX711P4M28CL,378117000000000.0,emoney,Clara Habibi,M,1980,JAK.112,Terminal Tanah Merah - Pulo Gadung,1,B01041P,Jln. Dewi Sinta,-6.167442,106.91,17,2023-04-30 08:47:00,B01310P,Jln. Kuning Tua,-6.164733,106.90996,19.0,4/30/2023 10:35,0.0
EPNX757T6D32XE,4673890000000000.0,dki,"R.M. Ian Mangunsong, S.Pd",M,1989,6U,Blok M - Pasar Minggu,1,B06639P,Buncit Indah 1,-6.274,106.83019,14,2023-04-30 17:21:00,B02197P,Mampang 5,-6.24539,106.82584,18.0,4/30/2023 18:23,3500.0
VGER941H7Q41DU,4814650000000000.0,dki,Karsana Mayasari,F,2005,7Q,Blok M - PGC,1,B06640P,Sbr. Jln. Mampang Prapatan VI,-6.247118,106.82606,19,2023-04-30 13:30:00,B05744P,Tirtayasa 1,-6.239279,106.80756,29.0,4/30/2023 14:00,3500.0
HSJR765W6G15RW,565742000000.0,flazz,R.M. Galih Hutapea,M,1999,JAK.36,Cilangkap - Cililitan,0,,Gg. Ayama,-6.27204,106.8671,38,2023-04-30 09:43:00,B00301P,Dato Tonggara,-6.283918,106.87222,51.0,4/30/2023 10:23,0.0
AZAK616A4W14LS,4390440000000000.0,dki,Bakiman Puspasari,M,1984,JAK.06,Kampung Rambutan - Pondok Gede,1,B02502P,Museum Nasional VIsible Storage,-6.307188,106.89653,16,2023-04-30 06:22:00,B01400P,Jln. Mini I,-6.311268,106.90545,20.0,4/30/2023 7:31,0.0
ZIXE656Z5D74GU,4434150000000000.0,dki,Manah Mustofa,F,1964,12,Tanjung Priok - Pluit,0,P00076,Gunung Sahari Mangga Dua,-6.136817,106.83237,12,2023-04-30 12:59:00,P00131,Mangga Dua,-6.136148,106.82597,13.0,4/30/2023 13:34,3500.0
IDWR330M4L12BL,4467200000000000.0,dki,Ratna Rajasa,M,1993,JAK.02,Kampung Melayu - Duren Sawit,0,B01913P,Kel. Duren Sawit,-6.230817,106.91423,35,2023-04-30 13:28:00,B03134P,RS Duren Sawit 1,-6.230656,106.91014,37.0,4/30/2023 14:46,0.0
WKCV680W7O19JH,342444000000000.0,emoney,Zamira Mustofa,F,1998,3C,Rusun Kapuk Muara - Penjaringan,0,B03277P,Rusun Kapuk Muara,-6.135667,106.76299,0,2023-04-30 21:33:00,P00170,Penjaringan,-6.126306,106.79203,1.0,4/30/2023 22:25,0.0
LHWM724U9J64EA,377730000000000.0,emoney,Dimaz Fujiati,F,2005,6B,Ragunan - MH Thamrin via Semanggi,0,P00067,Gatot Subroto LIPI Arah Barat,-6.227392,106.81763,11,2023-04-30 10:16:00,,,,,,,3500.0
NHSI262W7N25XW,4682090000000.0,online,"Dr. Michelle Dongoran, S.Gz",F,2004,12H,Rusun Penjaringan - Penjaringan,0,,Rusun Penjaringan,-6.130702,106.79487,0,2023-04-30 12:09:00,P00170,Penjaringan,-6.126306,106.79203,1.0,4/30/2023 13:02,3500.0
JGEP922S7A53DJ,5202120000000000.0,dki,H. Timbul Waluyo,M,1989,JAK.48A,Stasiun Tebet - Rusun Karet Tengsin,1,B03318P,Sawo Kecik Raya,-6.224852,106.85489,22,2023-04-30 10:58:00,B02320P,Masjid Jami Al Mamur Bukit Duri,-6.225059,106.85606,23.0,4/30/2023 12:35,
IABS288U4I53LE,30466000000000.0,bni,Unjani Yuniar,F,1996,1Q,Rempoa - Blok M,1,B02540P,One Park Residences,-6.245436,106.78844,9,2023-04-30 19:49:00,B02380P,Masjid Raya Nurul Hidayah,-6.253434,106.77626,17.0,4/30/2023 20:08,3500.0
PKUA191K3E47LE,6572850000000000.0,dki,Jane Lazuardi,F,2009,JAK.17,,0,,Jln. Sunan Drajad,-6.193665,106.89479,8,2023-04-30 17:48:00,,,,,,,0.0
SPOK000L5X86VA,180008000000000.0,emoney,Raihan Januar,M,1977,3B,Rusun Flamboyan - Cengkareng,1,B04136P,Sbr. Ps. Cengkareng,-6.151851,106.72708,1,2023-04-30 17:32:00,B04610P,Sekolah Al Huda 1,-6.149731,106.72736,2.0,4/30/2023 18:20,0.0
VYOG310K3B90VT,3511610000000000.0,dki,Jessica Winarsih,F,2007,10B,Rusun Cipinang Besar Selatan - Penas Kalimalang,1,B02723P,Penas Kalimalang 2,-6.239095,106.87826,0,2023-04-30 07:46:00,B00264P,Cipinang Kb. Nanas 1,-6.231595,106.87615,2.0,4/30/2023 9:08,0.0
PYCJ237W9Q35SA,4171370000000000.0,dki,"Ir. Padma Widiastuti, M.TI.",M,1994,11N,,0,B03745P,Sbr. Jln. Kapuk II,-6.215699,106.9002,3,2023-04-30 10:12:00,B00791P,Imigrasi Jaktim 1,-6.214787,106.88182,8.0,4/30/2023 11:35,0.0
QRQG786V1B11HA,30230900000000.0,bni,Tami Saputra,M,1997,L13E,Puri Beta - Kuningan (Express),0,P00120,Kuningan Madya,-6.21341,106.8305,10,2023-04-30 13:06:00,P00222,Setiabudi Utara,-6.209189,106.830237,11.0,4/30/2023 14:15,3500.0
DCGP607D3N84QZ,4050340000000000.0,dki,"Winda Anggraini, S.Pd",F,1988,13,Ciledug - Tendean,1,P00096,JORR,-6.236104,106.75488,10,2023-04-30 14:32:00,P00001,Adam Malik,-6.236466,106.74786,11.0,4/30/2023 15:28,3500.0
QHYQ922Y9N06XN,586202000000.0,flazz,"Balamantri Rahimah, S.T.",F,2010,,,0,B00961P,Jln. Bungur Akses Term. 2,-6.311895,106.8849,29,2023-04-30 18:37:00,,,,,,,0.0
ZSQW392P0U49HT,6011310000000000.0,dki,Mulyanto Handayani,F,1995,M9,Pinang Ranti - Pluit,1,P00282,Grogol 2 Arah Selatan,-6.167435,106.78856,6,2023-04-30 15:05:00,P00018,BNN Arah Barat,-6.24651,106.87318,21.0,4/30/2023 16:29,3500.0
BSOY831D6Q68OG,213105000000000.0,emoney,Jaswadi Saefullah,M,1966,12P,St. LRT Pegangsaan Dua - JIS,0,B00174P,Boulevard Pelepah Raya,-6.159256,106.90317,3,2023-04-30 14:31:00,B06074P,Institut Kesehatan Indonesia,-6.154063,106.89392,6.0,4/30/2023 16:29,3500.0
GKDZ785I3Y67RB,3509890000000000.0,dki,Nadia Palastri,F,2009,1M,Meruya - Blok M,1,B02391P,Mayestik 1,-6.242041,106.79116,4,2023-04-30 21:26:00,B05641P,Taman Puring,-6.240966,106.78873,6.0,4/30/2023 21:49,3500.0
XBJU215R4C51CX,3554070000000000.0,dki,Darimin Adriansyah,F,1998,JAK.04,Grogol - Tubagus Angke,0,B01920P,Kel. Jelambar,-6.161564,106.78166,10,2023-04-30 05:06:00,B00215P,Bunda Hati Kudus Jelambar,-6.165552,106.78484,13.0,4/30/2023 5:26,0.0
APJQ825I3Q47ZC,180065000000000.0,emoney,Laksana Tampubolon,M,1982,JAK.19,,0,B03098P,Rindang Alam,-6.310511,106.9003,44,2023-04-30 14:11:00,,,,,,,0.0
DJZC595K9R93KQ,4.96082e+18,brizzi,Garda Dabukke,M,2009,6A,,0,P00222,Setiabudi Utara,-6.209189,106.830237,16,2023-04-30 13:36:00,P00256,MH Thamrin,-6.188149,106.82299,18.0,4/30/2023 15:32,3500.0
GSNM637F8I56CN,30571100000000.0,bni,"Balangga Siregar, S.IP",M,2012,JAK.51,Taman Kota - Budi Luhur,1,B02935P,Ponpes Musyarrofah,-6.22587,106.74483,42,2023-04-30 17:26:00,B05749P,TK Al Husna Petukangan Utara,-6.231921,106.74521,45.0,4/30/2023 18:47,0.0
EOST449W5I09JV,4.48009e+18,brizzi,Salimah Tampubolon,F,2012,7C,Cibubur - BKN,1,B00226P,Buperta Cibubur,-6.370321,106.89628,1,2023-04-30 11:19:00,B00248P,Cibubur Junction,-6.368735,106.89366,2.0,4/30/2023 12:40,3500.0
OTLJ180G5R48MI,30189200000000.0,bni,Melinda Manullang,M,1985,JAK.02,Kampung Melayu - Duren Sawit,0,B02189P,Mall Cipinang Indah 1,-6.239676,106.89405,23,2023-04-30 05:07:00,B04727P,Simpang BKT,-6.230001,106.91423,36.0,4/30/2023 6:03,0.0
TAAW895Q2E91JF,4460800000000.0,online,Michelle Hidayat,F,1993,JAK.54,Grogol - Benhil,0,B00975P,Jln. Cempaka Bawah Jati Pulo,-6.180729,106.80286,22,2023-04-30 13:43:00,B01663P,Jln. Tj. Gedong,-6.166664,106.79388,35.0,4/30/2023 15:02,0.0
XPLP589H9U44LN,676159000000.0,flazz,"H. Eja Novitasari, S.Farm",F,1988,1C,Pesanggrahan - Blok M,0,B02392P,Mayestik 2,-6.241772,106.79096,31,2023-04-30 07:19:00,B03171P,RS Pusat Pertamina 3,-6.239806,106.79431,33.0,4/30/2023 8:04,3500.0
JDDH502G7S40SK,4261080000000000.0,dki,"Taufan Natsir, S.Ked",F,1995,JAK.80,Rawa Buaya - Rawa Kompeni,1,B04152P,Sbr. Ps. Kamal,-6.104541,106.70712,10,2023-04-30 11:12:00,,,,,,,0.0
KWZU746Z4B06QS,213164000000000.0,emoney,Bagiya Dabukke,F,1986,JAK.15,Bulak Turi - Tanjung Priok,1,B03265P,Rumah Sipitung,-6.100075,106.96054,50,2023-04-30 07:46:00,B05941P,Rusunawa Marunda Blok D3,-6.09627,106.9608,52.0,4/30/2023 8:49,0.0
VPLT953I9A76BR,3541470000000000.0,dki,Puput Astuti,M,1976,2,Pulo Gadung - Monas,1,P00007,Balai Kota,-6.180488,106.82646,1,2023-04-30 18:44:00,P00219,Senen,-6.178211,106.84251,4.0,4/30/2023 18:59,3500.0
GQTS042U1Y63JL,502097000000.0,flazz,Unjani Zulkarnain,F,2003,,,1,P00217,Senayan JCC Arah Barat,-6.213906,106.80841,3,2023-04-30 09:38:00,B02214P,Manggala Wanabakti,-6.204951,106.79963,6.0,4/30/2023 11:19,3500.0
ZQJO774I3D56QC,30067300000000.0,bni,Vanesa Suryono,M,2009,10H,Tanjung Priok - Blok M,0,P00176,Petojo,-6.169984,106.81698,7,2023-04-30 19:31:00,P00218,Senayan JCC Arah Timur,-6.214145,106.809,13.0,4/30/2023 20:11,3500.0
ZXPO716R6S43NZ,4.07668e+18,brizzi,Betania Puspita,F,1973,M8,Lebak Bulus - Pasar Baru,1,P00113,Kelapa Dua Sasak,-6.205551,106.76953,11,2023-04-30 20:40:00,P00087,Jelambar,-6.166548,106.78651,17.0,4/30/2023 22:01,3500.0
PPXA398T6B30CR,213143000000000.0,emoney,Irfan Sirait,F,1983,11,Pulo Gebang - Matraman,0,P00080,Imigrasi Jakarta Timur,-6.214632,106.88227,10,2023-04-30 18:22:00,P00151,Pasar Enjo,-6.214881,106.87819,11.0,4/30/2023 19:50,3500.0
AHXR923T8X93EX,2448680000000000.0,dki,Wulan Marbun,M,1999,7B,Kampung Rambutan - Blok M,0,B00206P,Bulak Rantai,-6.284664,106.87123,15,2023-04-30 13:50:00,B05273P,SMAN 55,-6.253455,106.83867,30.0,4/30/2023 14:07,3500.0
XUHA617J8U06NF,2289550000000000.0,dki,Hana Rajasa,M,1986,JAK.110A,Rusun Marunda - Terminal Terpadu Pulo Gebang,1,B03265P,Rumah Sipitung,-6.100075,106.96054,72,2023-04-30 10:37:00,B03284P,Rusun Marunda 2,-6.09826,106.96218,73.0,4/30/2023 12:18,0.0
BOQY005T6A70CV,6548040000000000.0,dki,"R. Rahayu Lailasari, M.Farm",F,2007,JAK.36,Cilangkap - Cililitan,0,B02144P,Lippo Mall Kramat Jati,-6.270835,106.86741,45,2023-04-30 07:03:00,B00301P,Dato Tonggara,-6.283918,106.87222,51.0,4/30/2023 7:26,0.0
VDCA983U0I74OG,4857310000000000.0,dki,Hartana Prasasta,M,1984,3E,Puri Kembangan - Sentraland Cengkareng,1,B04643P,Sekolah Pah Tsung,-6.136693,106.73785,21,2023-04-30 06:04:00,,,,,,,3500.0
YZYF276T0G31MD,2425730000000000.0,dki,"H. Jagapati Nainggolan, S.Gz",F,1983,JAK.12,Tanah Abang - Kebayoran Lama via Pos Pengumben,0,B03880P,Sbr. Jln. Ww Sukabumi Selatan,-6.213704,106.7768,34,2023-04-30 13:49:00,,,,,,,0.0
XUQP143A7E03ZG,6544080000000000.0,dki,Pia Hardiansyah,F,2000,M10,PGC 2 - Tanjung Priok,1,P00248,Tanjung Priok,-6.10959,106.88214,0,2023-04-30 15:46:00,P00271,Walikota Jakarta Utara Arah Selatan,-6.118845,106.89347,3.0,4/30/2023 16:56,3500.0
DXBJ108V3I75RT,2273770000000000.0,dki,Zalindra Pratiwi,M,1974,JAK.59,Rawamangun - Tanah Merah,0,B02574P,Panti Asuhan Putera Mulia,-6.188966,106.88841,4,2023-04-30 05:18:00,B00170P,Boulevard Janur Elok Raya 2,-6.150553,106.90922,28.0,4/30/2023 6:51,0.0
BSIH495K2O76EA,3589280000000000.0,dki,"Ir. Kenzie Suryono, M.M.",F,1966,5M,Kampung Melayu - Tanah Abang via Cikini,1,B01816P,Kantor Pos Cikini,-6.187423,106.83654,13,2023-04-30 09:42:00,B05350P,SMPN 14,-6.214718,106.86485,28.0,4/30/2023 10:20,3500.0
NDPP578G0R72PR,676366000000.0,flazz,Jaswadi Agustina,M,1988,JAK.19,Pinang Ranti - Kampung Rambutan,1,B03859P,Sbr. Jln. Swadaya II,-6.297206,106.89481,46,2023-04-30 06:54:00,B00449P,Gg. H Piran,-6.297323,106.89335,47.0,4/30/2023 8:00,0.0
TLHC509I3P97LI,371953000000000.0,emoney,"Ir. Rusman Rahimah, M.Ak",F,1994,JAK.53,Grogol - Pos Pengumben via Slipi,1,B02047P,Komplek Kijang Kencana,-6.194345,106.78962,42,2023-04-30 09:57:00,B05705P,Term. Grogol 2,-6.16618,106.79329,63.0,4/30/2023 10:45,0.0
IEDI603F6H33CV,3554800000000000.0,dki,"Sutan Gada Adriansyah, M.Pd",M,1977,BW9,Monas - Pantai Indah Kapuk,1,B06044P,The Piano,-6.094772,106.74292,3,2023-04-30 09:11:00,B02832P,PIK Avenue,-6.108595,106.73978,5.0,4/30/2023 10:23,0.0
OGOV106S4Y99CZ,3551700000000000.0,dki,"Ir. Endah Pradipta, S.IP",M,1982,JAK.15,Bulak Turi - Tanjung Priok,1,B03893P,Sbr. Kebantenan IX,-6.108601,106.93245,28,2023-04-30 16:14:00,B02620P,Ps. Jongkok,-6.108844,106.93442,30.0,4/30/2023 17:18,0.0
HWGK953C3T54RI,502079000000.0,flazz,Radika Hassanah,M,1984,6P,Cibubur - Kuningan,1,B05698P,Tempo Scan,-6.235112,106.82885,13,2023-04-30 10:13:00,B03094P,Rest Area Cibubur,-6.339993,106.89078,17.0,4/30/2023 11:47,20000.0
VPTN973G8R76WW,4.36214e+18,brizzi,Zalindra Hidayanto,M,1983,4C,TU Gas - Bundaran Senayan,1,P00135,Matraman 2,-6.19891,106.8545,15,2023-04-30 14:34:00,P00269,Velodrome,-6.193468,106.8883,22.0,4/30/2023 16:06,3500.0
TJIU420V0F57VV,3518390000000000.0,dki,Yuni Fujiati,F,1976,JAK.43C,Sarana Jaya - Tebet Eco Park (TEP) - Stasiun Cawang,1,B06086P,Tebet Eco Park Selatan 3,-6.241699,106.85365,1,2023-04-30 11:54:00,B06273P,Tebet Eco Park Utara,-6.237129,106.85238,3.0,4/30/2023 12:15,0.0
JIVC211X4X01TY,3540850000000000.0,dki,Drs. Puji Mansur,F,2012,2F,Rusun Cakung Barat - Pulo Gadung,0,P00258,Tipar Cakung,-6.183387,106.92463,2,2023-04-30 18:39:00,B06188P,SMK Nurul Huda,-6.17684,106.93592,4.0,4/30/2023 19:50,0.0
CCOW487T7A90QN,4761090000000000.0,dki,Nasrullah Prayoga,M,1989,4D,Pulo Gadung 2 - Kuningan,1,P00158,Pasar Pulo Gadung,-6.187434,106.90591,20,2023-04-30 17:35:00,P00193,Pulo Gadung 2,-6.183098,106.90872,21.0,4/30/2023 18:50,3500.0
BOXK406N6G73OV,639017000000.0,flazz,Amelia Prastuti,F,1988,2B,Harapan Indah - ASMI,1,B04886P,Simpang JORR,-6.183114,106.93845,10,2023-04-30 21:07:00,,,,,,,3500.0
NVMG621V7Z39FX,5204760000000000.0,dki,"Satya Usada, S.Pt",F,1992,11K,Rusun Komarudin - Penggilingan,1,P00169,Penggilingan,-6.214132,106.93961,0,2023-04-30 14:24:00,B03281P,Rusun Komarudin,-6.208781,106.94252,1.0,4/30/2023 16:20,0.0
HRRL733Y3R49EX,3531780000000000.0,dki,Ir. Hamima Maulana,M,1965,JAK.05,Semper - Rorotan,0,B01002P,Jln. Cilincing Bakti,-6.106467,106.93353,21,2023-04-30 17:45:00,B02519P,Musholla Al Mukhlisin 2,-6.127774,106.91799,40.0,4/30/2023 19:37,0.0
NYJZ123U8C78IF,3528370000000000.0,dki,"Cengkal Fujiati, M.Farm",M,1966,JAK.73,Jambore Cibubur - Pasar Rebo,1,B03996P,Sbr. Lapangan Kaprina,-6.34739,106.88437,27,2023-04-30 09:24:00,B04230P,Sbr. Popki Cibubur,-6.367222,106.88908,44.0,4/30/2023 10:40,0.0
LLFB581V8S89CQ,6560430000000000.0,dki,Gandewa Rahayu,F,2002,JAK.56,Grogol - Srengseng,1,B01899P,Kelapa Dua Sasak 1,-6.205051,106.76931,3,2023-04-30 20:14:00,B02460P,Minimarket Kemanggisan 1,-6.193882,106.78631,25.0,4/30/2023 21:04,0.0
BZXO687U7J37HW,6517880000000000.0,dki,Putri Uwais,M,1988,9E,Kebayoran Lama - Jelambar,1,B05223P,Simprug 1,-6.223678,106.7902,15,2023-04-30 17:42:00,P00155,Pasar Kebayoran Lama,-6.238413,106.78323,20.0,4/30/2023 18:54,3500.0
ZCLX733B6B21CK,2719700000000000.0,dki,Laila Nainggolan,F,2008,6U,Blok M - Pasar Minggu,1,B02880P,PLN Pusat,-6.240011,106.80376,27,2023-04-30 05:37:00,B06578P,Blok M Jalur 3,-6.243426,106.80188,29.0,4/30/2023 6:14,3500.0
NCPZ984N9A56JG,501815000000.0,flazz,Usyi Putra,M,1989,JAK.120,JIS - Terminal Muara Angke,0,B00635P,Gereja Reformed Injili Indonesia,-6.153049,106.8443,9,2023-04-30 17:51:00,B05633P,Taman Pangeran Jayakarta,-6.144557,106.83199,17.0,4/30/2023 18:23,0.0
OFGI909M2D23UG,2470180000000000.0,dki,Banawa Narpati,F,1991,2F,Rusun Cakung Barat - Pulo Gadung,1,B06147P,Pasar Pulo Jaya,-6.195007,106.92255,6,2023-04-30 20:32:00,B02997P,Pulo Gadung,-6.183245,106.90868,16.0,4/30/2023 21:31,0.0
XWUU150Z2F36ZL,3562300000000000.0,dki,Tina Hidayanto,F,1998,JAK.34,Rawamangun - Klender,0,,Jln. Bulak Barat V Klender,-6.217018,106.90373,23,2023-04-30 14:28:00,B05477P,St. LRT Velodrome 1,-6.191381,106.89127,41.0,4/30/2023 15:17,0.0
CNBT546M0C36ME,582960000000.0,flazz,"drg. Ani Pratiwi, S.Pt",F,2003,JAK.10,Tanah Abang - Kota,1,B01639P,Jln. Taman Kb. Sirih,-6.182295,106.81661,37,2023-04-30 20:34:00,B01786P,JPO Blok E,-6.184738,106.81492,39.0,4/30/2023 22:06,0.0
IMTB803X1N70IZ,639044000000.0,flazz,Hani Samosir,F,1983,JAK.14,Tanah Abang - Meruya,1,B05947P,Kantor PJU,-6.196096,106.72987,1,2023-04-30 17:22:00,B03400P,SDN Palmerah 07,-6.205766,106.7965,40.0,4/30/2023 18:07,0.0
AVDF100I8S13HY,4198100000000000.0,dki,"Karna Nugroho, S.Pd",F,1981,JAK.72,Kampung Rambutan - Pasar Rebo via Poncol,0,B01160P,Jln. Industri Suci Raya,-6.312223,106.86972,55,2023-04-30 18:55:00,B03044P,Puskesmas Ciracas,-6.311774,106.87472,58.0,4/30/2023 19:33,0.0
WWNL240K4K09QI,373633000000000.0,emoney,"Lintang Hidayanto, S.Ked",F,1986,3H,Jelambar - Kota,1,P00292,Harmoni Arah Selatan,-6.162687,106.81992,5,2023-04-30 14:37:00,P00208,RS Sumber Waras,-6.166294,106.79675,7.0,4/30/2023 15:10,
XDHH506X7G51DA,180015000000000.0,emoney,Puti Syahrini Rajata,M,1994,JAK.115,Term. Tj. Priok - Pegangsaan II IGI,0,B06584P,Jln. Mengkudu Dalam,-6.11807,106.90654,9,2023-04-30 21:28:00,B06603P,Jln. Pegangsaan Dua 9,-6.1804,106.91847,39.0,4/30/2023 22:16,0.0
UQKU929M6L08IT,30578500000000.0,bni,Mahdi Yuliarti,M,1972,JAK.18,Kalibata - Kuningan,1,B01478P,Jln. Perkutut Bukit Duri,-6.220981,106.85438,19,2023-04-30 16:46:00,B05511P,St. Tebet 2,-6.225525,106.85813,23.0,4/30/2023 18:18,0.0
NRYE969T1M16YG,3558520000000000.0,dki,Cut Olivia Hassanah,M,1999,9A,PGC 2 - Grogol 2,0,P00216,Semanggi,-6.22111,106.81354,13,2023-04-30 20:15:00,P00227,Slipi Petamburan Arah Utara,-6.20203,106.79989,15.0,4/30/2023 21:37,3500.0
NOJL484C9Y73ZQ,4023930000000.0,online,Cakrabuana Halimah,M,1985,JAK.61,Cempaka Putih - Pulo Gadung via Kelapa Gading,0,B05558P,Sunter Permai Indah 2,-6.149751,106.88647,11,2023-04-30 13:19:00,B02156P,Lotte Mart Kelapa Gading,-6.154215,106.89467,14.0,4/30/2023 14:54,0.0
YRJU843C6D53WG,6587350000000000.0,dki,Ega Hariyah,M,1972,4,Pulo Gadung 2 - Tosari,1,P00152,Pasar Genjing,-6.194446,106.86092,4,2023-04-30 13:42:00,P00263,TU Gas,-6.19241,106.90489,13.0,4/30/2023 14:28,3500.0
NLVS746S0L29XI,4.68635e+18,brizzi,"Puji Hidayanto, M.Farm",F,1990,5M,Kampung Melayu - Tanah Abang via Cikini,0,B05707P,Term. Kampung Melayu 2,-6.224516,106.86685,0,2023-04-30 18:06:00,B00159P,Blok F,-6.188552,106.81249,31.0,4/30/2023 18:56,3500.0
ALFB825R2K20LD,3528330000000000.0,dki,Hilda Sudiati,F,1993,JAK.21,Cililitan - Dwikora,0,B06870P,Sbr. Jln. Nusa I Cililitan,-6.264402,106.871284,4,2023-04-30 15:01:00,B00704P,Grha Intirub 2,-6.265491,106.87672,8.0,4/30/2023 16:59,0.0
USPH703Z4R19VD,348579000000000.0,emoney,Capa Waluyo,F,1993,L13E,Puri Beta - Kuningan (Express),0,P00222,Setiabudi Utara,-6.209189,106.830237,11,2023-04-30 07:28:00,P00124,Latuharhary,-6.202761,106.82771,12.0,4/30/2023 8:06,3500.0
YDEN084L0G53PB,213199000000000.0,emoney,Jamalia Wasita,M,1967,M10,PGC 2 - Tanjung Priok,0,P00267,Utan Kayu Rawamangun,-6.197515,106.87404,9,2023-04-30 13:04:00,P00105,Kayu Putih Rawasari,-6.187453,106.87542,11.0,4/30/2023 14:31,3500.0
MYHK585I2J65FE,4771590000000000.0,dki,R.M. Prasetyo Wahyuni,F,1949,8,Lebak Bulus - Pasar Baru via Tomang,0,P00245,Tanah Kusir Kodim,-6.256997,106.78168,4,2023-04-30 08:29:00,P00111,Kedoya Green Garden,-6.164435,106.76301,15.0,4/30/2023 9:51,3500.0
GTEN263Z6M69GT,3584820000000000.0,dki,T. Kuncara Puspasari,M,1984,JAK.64,Lenteng Agung - Aseli,0,B01871P,Kec. Jagakarsa,-6.334534,106.82144,17,2023-04-30 19:33:00,B02236P,Masjid Al Birru Warrohmah,-6.336957,106.83006,22.0,4/30/2023 20:46,0.0
OYGB284U8J90JX,4454220000000000.0,dki,Cemplunk Pertiwi,M,1983,6D,Stasiun Tebet - Karet via Underpass,1,B02965P,Pos Polisi Satrio,-6.225044,106.82827,8,2023-04-30 18:26:00,B05544P,Summitmas,-6.225826,106.80402,16.0,4/30/2023 20:24,3500.0
ERUK377K1L22RK,5427770000000000.0,dki,Ida Megantara,F,1989,6D,Stasiun Tebet - Karet via Underpass,1,B05397P,SMU 79,-6.225412,106.83865,5,2023-04-30 20:39:00,,Bundaran Senayan 1,-6.227445,106.80187,17.0,4/30/2023 22:27,3500.0
BCNY086O6D67NH,4642940000000000.0,dki,Maimunah Rahmawati,M,1976,2Q,Gondangdia - Balai Kota,1,B06034P,Masjid Cut Nyak Dien,-6.1874,106.8317,6,2023-04-30 20:25:00,B03596P,Sbr. Goethe Institute,-6.189435,106.83131,7.0,4/30/2023 20:59,3500.0
HFBQ596W1M20GZ,4848510000000000.0,dki,Lalita Nasyiah,M,1982,1K,Cibubur Junction - Blok M,1,B00378P,FX Sudirman,-6.225532,106.8037,3,2023-04-30 12:44:00,B03097P,Rest Area TMII,-6.29467,106.8812,8.0,4/30/2023 14:00,20000.0
JPQS702R1S55BS,5172420000000000.0,dki,"Nasrullah Ardianto, S.Farm",F,2009,JAK.36,Cilangkap - Cililitan,0,B01369P,Jln. Masjid Al Ihsan,-6.280339,106.87117,49,2023-04-30 14:39:00,B00301P,Dato Tonggara,-6.283918,106.87222,51.0,4/30/2023 16:11,0.0
NSGQ910U1T06PV,675914000000.0,flazz,"Nadine Purnawati, S.Farm",F,1997,B11,Summarecon Bekasi - BNN,1,B00108P,Bandar Djakarta Bekasi,-6.227085,106.99683,5,2023-04-30 07:08:00,P00236,Summarecon Bekasi,-6.225566,107.00281,6.0,4/30/2023 7:34,3500.0
PQWM560N5U70FS,3571930000000000.0,dki,"Dt. Anggabaya Marbun, S.T.",F,2006,S22,Ciputat - Kampung Rambutan,0,B02945P,Pool PPD Ciputat,-6.331231,106.74851,0,2023-04-30 06:40:00,B04671P,Selapa Polri,-6.286492,106.77119,12.0,4/30/2023 8:08,3500.0
JGAS914K3N01MJ,3563990000000000.0,dki,Sutan Taufik Samosir,M,1965,JAK.27,Pulo Gebang - Rorotan,0,B01574P,Jln. Sentosa Tambun Rengas,-6.176636,106.96234,27,2023-04-30 21:08:00,B03103P,Rorotan IX Gg. V,-6.155712,106.95972,41.0,4/30/2023 22:20,0.0
RIZP901E8E91VC,345650000000000.0,emoney,Purwa Rahmawati,F,1992,JAK.02,Kampung Melayu - Duren Sawit,0,B05082P,Simpang Pondok Bambu Batas 1,-6.241476,106.90061,26,2023-04-30 09:03:00,B01676P,Jln. Teluk Mandar 1,-6.238715,106.90988,32.0,4/30/2023 10:58,0.0
CFAH725N4Y23XJ,374652000000000.0,emoney,"Dr. Abyasa Wastuti, S.IP",F,1992,5M,Kampung Melayu - Tanah Abang via Cikini,1,B05315P,SMKN 38,-6.181971,106.8174,3,2023-04-30 06:26:00,,RSCM 1,-6.198831,106.84636,19.0,4/30/2023 6:53,3500.0
VUDG214O7K66LD,676106000000.0,flazz,R.A. Yulia Winarsih,F,2009,6A,Ragunan - MH Thamrin via Kuningan,1,P00048,Departemen Pertanian,-6.294641,106.82213,17,2023-04-30 13:36:00,P00199,Ragunan,-6.305769,106.81949,18.0,4/30/2023 15:03,3500.0
RWLC897V4T00AK,4.91385e+18,brizzi,Drs. Qori Firmansyah,F,1988,M10,PGC 2 - Tanjung Priok,1,P00166,Pemuda Pramuka,-6.192795,106.87498,11,2023-04-30 14:58:00,P00042,Cipinang Kebon Nanas,-6.231659,106.87637,16.0,4/30/2023 15:19,3500.0
GFYB955U0F08GA,2443270000000000.0,dki,"Jane Gunawan, M.M.",F,2012,JAK.47,Pasar Minggu - Ciganjur via KB Ragunan,1,B06725P,Gg. Jenan,-6.286223,106.826922,11,2023-04-30 19:03:00,B04500P,Sbr. SPBU Cilandak KKO,-6.295925,106.8156,16.0,4/30/2023 20:03,0.0
DPPI500G2O75SW,2645620000000000.0,dki,Halima Hidayanto,F,2012,JAK.35,Pangkalan Jati - Rawamangun,0,B01548P,Jln. S Kalimalang Tarum Barat,-6.248748,106.90841,4,2023-04-30 16:43:00,B05306P,SMK Tunas Markatin,-6.196619,106.88842,36.0,4/30/2023 17:51,0.0
XNZB922J7M85EX,180084000000000.0,emoney,Keisha Suartini,M,1983,JAK.52,Terminal Kalideres - Terminal Muara Angke,1,B01328P,Jln. Lotus Indah,-6.116215,106.76534,13,2023-04-30 15:57:00,B05230P,SIT I-II PIK,-6.124299,106.74558,19.0,4/30/2023 17:54,0.0
EQXX014P1K60AJ,3552460000000000.0,dki,Amelia Rajata,F,1999,JAK.10,Tanah Abang - Kota,0,B02051P,Komplek Majapahit Permai,-6.169522,106.82111,12,2023-04-30 11:10:00,B05450P,St. Jayakarta 2,-6.140453,106.82291,31.0,4/30/2023 11:41,0.0
YVSR553N1G08UA,376450000000000.0,emoney,Diah Puspita,F,1974,10A,Rusun Marunda - Tanjung Priok,1,P00248,Tanjung Priok,-6.10959,106.88214,0,2023-04-30 20:05:00,B03284P,Rusun Marunda 2,-6.09826,106.96218,6.0,4/30/2023 20:32,0.0
GOFV021K2R44YW,30125700000000.0,bni,Kiandra Wasita,F,1996,JAK.49,Lebak Bulus - Cipulir,1,B00147P,Bintaro Park VIew,-6.257977,106.75969,25,2023-04-30 17:03:00,B05933P,Yon Arhanud - 10 Pesanggrahan,-6.258076,106.75626,31.0,4/30/2023 18:24,0.0
WVYC124K3G01UG,3502300000000000.0,dki,"Dt. Mahesa Hakim, S.I.Kom",F,1995,M7B,,0,B02062P,Komplek Polri Duren Tiga,-6.254242,106.83148,14,2023-04-30 08:11:00,B06577P,Blok M Jalur 2,-6.243369,106.80188,24.0,4/30/2023 9:51,
RHNP762T8O00EL,5563840000000000.0,dki,Ciaobella Nasyiah,F,1990,JAK.48B,Stasiun Tebet - Kampung Melayu,0,B05280P,SMAN 8,-6.218257,106.85954,2,2023-04-30 07:27:00,B01169P,Jln. Jatinegara Timur IV,-6.222457,106.86816,13.0,4/30/2023 8:09,
SBJL420U4M89BK,4596670000000000.0,dki,Tgk. Kalim Sirait,F,1975,1M,Meruya - Blok M,0,B01196P,Jln. Kampung Baru II Swadarma,-6.227325,106.76059,22,2023-04-30 17:15:00,B01842P,Kartini Hospital 2,-6.237876,106.76942,30.0,4/30/2023 17:31,3500.0
ERZB082I8R23GU,4852230000000000.0,dki,Zelaya Sitorus,M,1947,8K,Batusari - Grogol,1,B00552P,Gg. Samudera Casa Goya,-6.198942,106.77778,18,2023-04-30 14:49:00,B02116P,Lapangan Bola Meruya Ilir,-6.197423,106.76661,27.0,4/30/2023 15:39,3500.0
JQRF699G5F94TX,213185000000000.0,emoney,Jail Prasasta,F,2003,8C,Kebayoran Lama - Tanah Abang,0,B01925P,Kel. Kb. Kacang,-6.190837,106.81501,24,2023-04-30 09:15:00,B02972P,Pospol Jati Bunder,-6.189707,106.81317,27.0,4/30/2023 10:48,3500.0
PACD108O9F21QZ,213116000000000.0,emoney,Cawisono Simbolon,F,1992,JAK.58,Cilincing - Rorotan,0,B03800P,Sbr. Jln. Nagrak Marunda,-6.126834,106.95683,40,2023-04-30 14:36:00,B04007P,Sbr. Malaka 1 Gg. 2 Rorotan,-6.138348,106.95458,52.0,4/30/2023 15:46,0.0
VQPX089E4E03UB,6597650000000000.0,dki,Jefri Mardhiyah,F,1990,JAK.27,Pulo Gebang - Rorotan,0,B05030P,Simpang Pangeran Komarudin 1,-6.184719,106.94319,14,2023-04-30 05:55:00,B04811P,Simpang Garden City 1,-6.171995,106.96297,29.0,4/30/2023 6:58,0.0
CUOS847R4Y99JQ,3574620000000000.0,dki,Irsad Marbun,F,2003,8M,S. Parman - Tanah Abang,1,B03220P,RSUD Tarakan,-6.172239,106.81098,8,2023-04-30 10:19:00,,,,,,,3500.0
GZLS092H9K04SR,4079420000000.0,online,"T. Luluh Purnawati, S.Kom",F,1990,JAK.36,,0,B04211P,Sbr. PLN Kramat Jati,-6.283302,106.8716,35,2023-04-30 20:00:00,,Budiwarman 1,-6.279071,106.87019,36.0,4/30/2023 20:23,0.0
BVNG122H5D07UX,4467000000000.0,online,"Wulan Pangestu, S.Pd",M,2009,JAK.24,Senen - Pulo Gadung via Kelapa Gading,0,B00174P,Boulevard Pelepah Raya,-6.159256,106.90317,25,2023-04-30 06:10:00,B00674P,Graha Kirana,-6.150359,106.88755,30.0,4/30/2023 7:25,0.0
XSBP524F2V80BI,36716900000000.0,bni,Sadina Namaga,F,2003,JAK.48A,Stasiun Tebet - Rusun Karet Tengsin,1,B03266P,Rusun Benhil,-6.201418,106.80789,4,2023-04-30 18:34:00,B01208P,Jln. Karet Pasar Baru Timur II,-6.203949,106.81636,7.0,4/30/2023 19:24,
DHFJ287U5N69EY,503859000000.0,flazz,Darmaji Wijaya,M,1975,JAK.73,Jambore Cibubur - Pasar Rebo,1,B04388P,Sbr. Sekolah Islam PB Soedirman,-6.314439,106.86316,3,2023-04-30 06:51:00,B05940P,PKP,-6.340253,106.88548,60.0,4/30/2023 8:46,0.0
CXNR034C4K03QD,4071590000000.0,online,Febi Hidayat,M,1993,JAK.06,Kampung Rambutan - Pondok Gede,0,B01539P,Jln. Rawa Segaran,-6.306765,106.8919,47,2023-04-30 19:45:00,B02770P,Pertigaan Ceger,-6.306265,106.88809,49.0,4/30/2023 20:07,0.0
OZFG536S7P86TZ,3576980000000000.0,dki,Aditya Wibowo,M,1981,,,1,P00099,Kalideres,-6.154412,106.7055,0,2023-04-30 10:16:00,,,,,,,3500.0
JGLI536Q3H44GN,4649550000000000.0,dki,Tania Situmorang,F,1994,S12,BSD Serpong - Fatmawati,0,B05701P,Term. BSD,-6.306375,106.68536,0,2023-04-30 20:06:00,B05852P,Versailles,-6.308405,106.67367,2.0,4/30/2023 20:26,20000.0
TOLS410T3E31TP,5399330000000000.0,dki,"Tina Maheswara, S.Sos",F,1990,JAK.10,Tanah Abang - Kota,0,B02579P,Ps. Asem Reges,-6.15812,106.82718,19,2023-04-30 19:57:00,B01645P,Jln. Taman Sari XI,-6.150017,106.82676,22.0,4/30/2023 20:42,0.0
JNNC381D5N00HU,5305390000000000.0,dki,"Yessi Wibowo, S.E.",F,1997,8M,S. Parman - Tanah Abang,1,B05843P,Univ. Trisakti,-6.168658,106.7885,18,2023-04-30 14:46:00,B05839P,Univ. Tarumanegara,-6.169759,106.78866,19.0,4/30/2023 15:11,3500.0
VFKI349A0T84YE,3510370000000000.0,dki,Kala Waskita,M,1992,M1H,Tanah Abang - St. Gondangdia,0,B05667P,Tanah Abang AURI,-6.186064,106.81536,10,2023-04-30 15:26:00,B00159P,Blok F,-6.188552,106.81249,14.0,4/30/2023 15:53,
KFOC900Y1M96LW,3544530000000000.0,dki,"Ajimin Siregar, S.E.",M,1993,3C,Rusun Kapuk Muara - Penjaringan,0,B03277P,Rusun Kapuk Muara,-6.135667,106.76299,0,2023-04-30 19:01:00,P00170,Penjaringan,-6.126306,106.79203,1.0,4/30/2023 19:54,0.0
LLMW488L2E02TX,3529210000000000.0,dki,Rahmi Pratiwi,M,2011,2F,Rusun Cakung Barat - Pulo Gadung,0,P00191,PTC Pulo Gadung,-6.182622,106.91561,1,2023-04-30 19:09:00,P00028,Cakung United Tractors,-6.18324,106.92998,3.0,4/30/2023 20:19,0.0
CVXI501D4Q21HS,2241380000000000.0,dki,"Viktor Habibi, S.Psi",F,1977,9E,Kebayoran Lama - Jelambar,1,P00212,S Parman Podomoro City Arah Timur,-6.175799,106.79308,3,2023-04-30 12:12:00,B00058P,Apartemen Simprug Teras,-6.232197,106.78874,19.0,4/30/2023 13:47,3500.0
GIYK496P6E84VS,4446130000000000.0,dki,Intan Megantara,F,2006,JAK.28,Kp. Rambutan - Taman Wiladatika,1,B02985P,Prajawangsa 1,-6.32145,106.86508,25,2023-04-30 15:47:00,B01377P,Jln. Mastrip,-6.306793,106.87756,34.0,4/30/2023 17:11,0.0
VRFJ657N9G15EH,6011830000000000.0,dki,Najam Saefullah,M,1949,4,Pulo Gadung 2 - Tosari,0,P00189,Pramuka LIA,-6.192238,106.86858,9,2023-04-30 05:02:00,P00135,Matraman 2,-6.19891,106.8545,12.0,4/30/2023 6:11,3500.0
GDOZ208F6Q07DB,378526000000000.0,emoney,Lili Prasetyo,F,1989,1P,Senen - Blok M,0,B00083P,Atrium 1,-6.177759,106.8412,6,2023-04-30 05:23:00,B00102P,Balai Kota 1,-6.180598,106.82847,12.0,4/30/2023 6:45,3500.0
WKHS984W2A55ET,3502190000000000.0,dki,Prabawa Mayasari,F,2011,6,Ragunan - Dukuh Atas 2,0,P00047,Departemen Kesehatan,-6.228794,106.833205,12,2023-04-30 16:37:00,P00222,Setiabudi Utara,-6.209189,106.830237,16.0,4/30/2023 17:31,3500.0
OMET042X9H35LC,4040410000000000.0,dki,"KH. Yoga Jailani, M.Pd",M,1989,6T,Pasar Minggu - Velbak,0,B00252P,Cilandak Tengah,-6.29203,106.8021,21,2023-04-30 17:29:00,B02480P,MPR III Dalam,-6.285086,106.807087,23.0,4/30/2023 18:33,3500.0
OJDY541Z6F98KJ,4463060000000.0,online,Garan Uwais,M,2000,11,,1,P00057,Flyover Jatinegara,-6.215175,106.87356,2,2023-04-30 17:59:00,P00041,Cipinang,-6.213664,106.88986,5.0,4/30/2023 19:23,3500.0
HHIG972B2D13WM,347741000000000.0,emoney,"Jatmiko Pratama, S.Pd",M,2007,M2,Pulo Gadung - Monas,0,P00037,Cempaka Tengah,-6.170398,106.86659,7,2023-04-30 13:55:00,P00161,Pecenongan,-6.16771,106.82819,18.0,4/30/2023 15:51,3500.0
BKKF744T2X04LU,347792000000000.0,emoney,Violet Hassanah,M,2012,,,0,B05059P,Simpang Penggilingan Baru I,-6.302681,106.88123,7,2023-04-30 14:17:00,B00583P,Garuda Taman Mini 2,-6.290148,106.88162,20.0,4/30/2023 15:07,0.0
TMNW170J0W09FY,4086070000000000.0,dki,Aditya Wijayanti,F,1989,12,Tanjung Priok - Pluit,0,P00239,Sunter Boulevard Barat,-6.14965,106.889,5,2023-04-30 15:18:00,P00046,Danau Agung,-6.146869,106.85805,9.0,4/30/2023 16:12,3500.0
YIJU852I1L27IA,347391000000000.0,emoney,"Kairav Pudjiastuti, S.E.",M,1985,13,Ciledug - Tendean,1,P00268,Velbak,-6.239433,106.78552,5,2023-04-30 19:50:00,P00198,Puri Beta 2,-6.230532,106.72371,12.0,4/30/2023 20:43,3500.0
SWQH934P0D89BR,30434000000000.0,bni,Jessica Thamrin,M,1980,5F,Kampung Melayu - Tanah Abang,0,B00591P,Gebu Minang,-6.225359,106.85576,5,2023-04-30 09:41:00,,,,,,,3500.0
GTQU314I6S55KE,38629900000000.0,bni,Bakiadi Suryono,F,1985,JAK.77,Tanjung Priok - Jembatan Item,0,B04254P,Sbr. Puskesmas Kel. Warakas,-6.12074,106.87534,35,2023-04-30 06:22:00,B04177P,Sbr. Ps. Warakas,-6.115584,106.8797,41.0,4/30/2023 7:03,0.0
FTOC659N4H27DU,30106100000000.0,bni,Intan Mangunsong,F,1995,1C,Pesanggrahan - Blok M,0,B01842P,Kartini Hospital 2,-6.237876,106.76942,24,2023-04-30 18:23:00,B03052P,Puskesmas Kel. Gunung,-6.239678,106.79024,30.0,4/30/2023 19:26,3500.0
BHNK185L8Q98FI,30143000000000.0,bni,Ifa Pratama,M,2005,M2,Pulo Gadung - Monas,0,P00062,Gambir 1,-6.174612,106.8304,15,2023-04-30 14:44:00,P00137,Monas,-6.176248,106.82286,19.0,4/30/2023 15:16,3500.0
XVQL395Q5X10JN,38904300000000.0,bni,"Puti Olivia Nainggolan, S.Psi",F,1983,7C,Cibubur - BKN,0,B00248P,Cibubur Junction,-6.368735,106.89366,0,2023-04-30 21:46:00,,BKN,-6.257751,106.87,1.0,4/30/2023 23:19,3500.0
PGDQ801V7N53OU,5438650000000000.0,dki,Oliva Kusmawati,M,2003,9C,Pinang Ranti - Bundaran Senayan,0,P00249,Tebet Eco Park II Arah Barat,-6.243338,106.85212,7,2023-04-30 09:47:00,P00145,Pancoran Tugu Arah Barat,-6.2433,106.84388,8.0,4/30/2023 11:29,3500.0
HZGK559T2V76UE,4711610000000.0,online,Dt. Candra Halim,M,1975,JAK.85,Bintara - Cipinang Indah,1,B04097P,Sbr. Minimarket Pondok Kelapa,-6.228599,106.93531,32,2023-04-30 07:25:00,B05004P,Simpang Mawar Merah,-6.223833,106.93886,34.0,4/30/2023 8:05,0.0
YVQO990T0L30JB,4415330000000000.0,dki,Drs. Usyi Riyanti,M,1995,M4,Pulo Gadung 2 - Dukuh Atas 2,1,P00263,TU Gas,-6.19241,106.90489,2,2023-04-30 17:05:00,P00266,Utan Kayu,-6.192728,106.86457,10.0,4/30/2023 19:04,3500.0
OHCD588H4U71SN,4851190000000000.0,dki,Umaya Yulianti,M,1992,7P,Pondok Kelapa - BKN,1,B01276P,Jln. Kesadaran Kali Malang,-6.239286,106.88739,5,2023-04-30 21:38:00,B05304P,SMK Swadaya Global School,-6.247161,106.91976,18.0,4/30/2023 23:11,3500.0
VVAB414P0X58VH,4.70816e+18,brizzi,Kasiyah Puspita,M,1993,5D,PGC 1 - Ancol,0,P00021,Budi Utomo,-6.166063,106.83906,15,2023-04-30 08:37:00,P00140,Pademangan,-6.133704,106.83164,19.0,4/30/2023 10:17,3500.0
BKFZ114J4Q22GD,6560870000000000.0,dki,"Laras Wibisono, S.T.",M,2000,8M,S. Parman - Tanah Abang,1,B00623P,Gerbang Tol Tj. Duren,-6.173231,106.79049,20,2023-04-30 11:38:00,,S Parman Podomoro City Arah Timur,-6.175799,106.79308,21.0,4/30/2023 12:15,3500.0
IOBX910H0E03RY,6011270000000000.0,dki,R. Febi Lazuardi,M,2006,JAK.85,Bintara - Cipinang Indah,1,B05634P,Taman Pangkalan Jati Kalimalang,-6.24599,106.9053,4,2023-04-30 15:10:00,B04122P,Sbr. Pansoshan Anak Putra Utama I,-6.236966,106.91837,19.0,4/30/2023 16:47,0.0
GSAP261T5B33NY,4.01586e+18,brizzi,Kawaca Dabukke,M,1949,1C,Pesanggrahan - Blok M,0,B01012P,Jln. Cipulir 1,-6.237267,106.7754,26,2023-04-30 18:45:00,B06577P,Blok M Jalur 2,-6.243369,106.80188,35.0,4/30/2023 19:25,3500.0
ZWZN582N0S55MS,30408000000000.0,bni,"Sutan Kayun Lailasari, S.Kom",F,2011,12,Tanjung Priok - Pluit,0,P00046,Danau Agung,-6.146869,106.85805,9,2023-04-30 08:35:00,P00170,Penjaringan,-6.126306,106.79203,17.0,4/30/2023 10:22,3500.0
VTRG964R4N83GE,4260690000000000.0,dki,Balidin Habibi,F,1965,T11,Poris Plawad - Bundaran Senayan,0,B05854P,Victoria Park 1,-6.201633,106.62053,10,2023-04-30 06:28:00,P00225,Slipi Kemanggisan Arah Selatan,-6.189781,106.79726,20.0,4/30/2023 7:33,3500.0
WUCU539P5A40KG,30551600000000.0,bni,Aurora Saragih,F,2006,M8,Lebak Bulus - Pasar Baru,1,P00260,Tomang Mandala,-6.176875,106.80037,20,2023-04-30 05:28:00,P00176,Petojo,-6.169984,106.81698,22.0,4/30/2023 6:30,3500.0
RFQY831S1F61XC,348637000000000.0,emoney,Cahyadi Purwanti,M,1979,M5,Matraman Baru - Ancol,1,P00076,Gunung Sahari Mangga Dua,-6.136817,106.83237,2,2023-04-30 17:19:00,P00092,Jembatan Merah,-6.146731,106.83427,3.0,4/30/2023 17:47,3500.0
XAGY319Z5Z62YF,4653940000000000.0,dki,"Tgk. Rahmi Waskita, M.Kom.",M,1982,JAK.45,Lebak Bulus - Ragunan,0,B02297P,Masjid Darul Quran,-6.291176,106.77111,2,2023-04-30 11:32:00,B03030P,Pusdiklat Batan,-6.293368,106.772,3.0,4/30/2023 12:08,0.0
NAWK984N3E11KN,3544220000000000.0,dki,"Saiful Hutasoit, S.Kom",M,1966,JIS3,Harmoni - Jakarta International Stadium,1,P00292,Harmoni Arah Selatan,-6.162687,106.81992,5,2023-04-30 20:43:00,P00046,Danau Agung,-6.146869,106.85805,10.0,4/30/2023 22:32,3500.0
LWXL893U4Z33PD,501820000000.0,flazz,Cecep Gunarto,F,1983,T11,Poris Plawad - Bundaran Senayan,0,P00218,Senayan JCC Arah Timur,-6.214145,106.809,22,2023-04-30 19:43:00,P00026,Bundaran Senayan,-6.227869,106.80094,23.0,4/30/2023 20:11,3500.0
QSPZ488R9K49NM,3587180000000000.0,dki,"Vanesa Yuliarti, S.Pt",M,1989,JAK.06,Kampung Rambutan - Pondok Gede,1,B03148P,RS Jantung Binawaluya,-6.30841,106.87071,8,2023-04-30 17:07:00,B02780P,Pertigaan Pagelarang 2,-6.303794,106.91755,29.0,4/30/2023 18:29,0.0
FQQN436B9A67JB,4.54603e+18,brizzi,"Kawaya Zulaika, S.Pd",M,1987,7,Kampung Rambutan - Bidara Cina,0,P00153,Pasar Induk Kramat Jati,-6.294215,106.87203,4,2023-04-30 11:59:00,P00033,Cawang UKI,-6.250309,106.8736,8.0,4/30/2023 13:29,3500.0
IVOV501D9N05JW,4057900000000.0,online,"KH. Warta Marbun, S.Farm",M,1965,11P,Rusun Pondok Bambu - Walikota Jakarta Timur,1,B06655P,Walikota Jakarta Timur 2,-6.212722,106.94472,3,2023-04-30 16:31:00,B03135P,RS Duren Sawit 2,-6.232262,106.91019,19.0,4/30/2023 17:37,0.0
NHIQ612V7F52TM,3553900000000000.0,dki,drg. Danang Mulyani,M,1966,2B,Harapan Indah - ASMI,0,P00157,Pasar Modern Harapan Indah,-6.168544,106.97431,0,2023-04-30 09:06:00,P00203,Raya Bekasi Pulo Gebang,-6.187604,106.95987,9.0,4/30/2023 10:39,3500.0
QYJG258B8U73YI,2716000000000000.0,dki,Darmaji Fujiati,F,1990,3F,Kalideres - Gelora Bung Karno,0,,Rawa Buaya,-6.153908,106.72619,13,2023-04-30 11:38:00,P00099,Kalideres,-6.154412,106.7055,16.0,4/30/2023 13:12,3500.0
DGHS042E0O62BU,213156000000000.0,emoney,Digdaya Wacana,F,1997,9D,Pasar Minggu - Tanah Abang,0,B00241P,Centennial Tower,-6.230377,106.82026,20,2023-04-30 11:18:00,B02470P,Mja Rawa Bambu,-6.292069,106.84179,44.0,4/30/2023 11:55,3500.0
CFCH868B2U04XD,6572660000000000.0,dki,Violet Marbun,F,1992,5B,Stasiun Tebet - BNN,1,P00018,BNN Arah Barat,-6.24651,106.87318,0,2023-04-30 16:15:00,P00070,Gelanggang Remaja,-6.235445,106.86795,3.0,4/30/2023 17:57,3500.0
USOO768F0W23EM,4245980000000.0,online,Vicky Wahyuni,F,2005,JAK.47,Pasar Minggu - Ciganjur via KB Ragunan,0,B02333P,Masjid Jami Asy Syakirin,-6.351203,106.80153,7,2023-04-30 09:50:00,B06842P,Jl. M. Khafi,-6.311739,106.813142,25.0,4/30/2023 11:46,0.0
FYQE707X4F11BZ,4.18765e+18,brizzi,"Cut Yessi Astuti, S.E.I",M,1988,M4,Pulo Gadung 2 - Dukuh Atas 2,0,P00188,Pramuka BPKP,-6.192192,106.87401,8,2023-04-30 14:44:00,P00159,Pasar Rumput,-6.207125,106.84112,13.0,4/30/2023 15:53,3500.0
GAUP673X5I93RX,585460000000.0,flazz,Rizki Rahimah,M,1994,JAK.49,Lebak Bulus - Cipulir,0,B01397P,Jln. Metro Duta 1,-6.283107,106.78028,47,2023-04-30 15:54:00,B06650P,Jln. Lebak Bulus Raya,-6.289748,106.770854,51.0,4/30/2023 16:29,0.0
ETPB156Q0K09IY,4918140000000000.0,dki,Najwa Wijayanti,M,1997,BW9,Monas - Pantai Indah Kapuk,0,B00390P,Gambir 3,-6.178796,106.83095,1,2023-04-30 17:08:00,B06048P,Food Street,-6.092201,106.74388,5.0,4/30/2023 18:35,0.0
KKCA752F6Y94NU,213161000000000.0,emoney,Calista Prastuti,M,2006,JAK.45,Lebak Bulus - Ragunan,1,B05721P,Term. Ragunan,-6.305594,106.8202,0,2023-04-30 05:33:00,B04713P,Simpang Bango Tridharma Raya,-6.303002,106.80452,26.0,4/30/2023 7:27,0.0
JAUG332W0L94ZJ,3581470000000000.0,dki,Elma Samosir,F,1991,JAK.60,Kelapa Gading - Rusun Kemayoran,0,B04280P,Sbr. RS Gading Pluit,-6.166641,106.91542,2,2023-04-30 06:52:00,B03718P,Sbr. Jln. H. Mawar Sunter,-6.157892,106.8677,44.0,4/30/2023 7:46,0.0
YZWY033T2J95GO,378936000000000.0,emoney,"T. Tasnim Namaga, S.Psi",M,2012,8D,Joglo - Blok M,0,B01600P,Jln. Sukabumi Selatan,-6.216704,106.76921,20,2023-04-30 07:41:00,B01374P,Jln. Masjid Baabul Minan,-6.220471,106.741,30.0,4/30/2023 9:23,3500.0
ILXC160E6L08FA,3569600000000000.0,dki,Ir. Lalita Waskita,F,1990,11Q,Kampung Melayu - Pulo Gebang via BKT,1,B01392P,Jln. Mesjid Abidin,-6.229484,106.90194,10,2023-04-30 07:35:00,B02351P,Masjid Jami Nurul Ain 1,-6.227717,106.91976,17.0,4/30/2023 8:18,3500.0
JDOA133A6A23QV,4077850000000.0,online,Yunita Pratama,M,1998,JAK.48B,Stasiun Tebet - Kampung Melayu,0,B05350P,SMPN 14,-6.214718,106.86485,9,2023-04-30 05:00:00,B00308P,Dinas Olahraga Dan Pemuda,-6.219715,106.86802,10.0,4/30/2023 6:47,
HBHD751B0J11HU,3553950000000000.0,dki,"Elma Safitri, M.Kom.",M,1975,JAK.73,Jambore Cibubur - Pasar Rebo,1,B04230P,Sbr. Popki Cibubur,-6.367222,106.88908,44,2023-04-30 15:49:00,B03383P,SDN Kelapa Dua Wetan 02,-6.347237,106.88299,55.0,4/30/2023 17:42,0.0
FJJE945E8N99JF,4316770000000000.0,dki,"Ir. Sadina Sudiati, S.E.I",M,1993,12,Tanjung Priok - Pluit,1,P00114,Kemayoran Landas Pacu Timur,-6.152181,106.85424,10,2023-04-30 15:27:00,P00171,Permai Koja Arah Utara,-6.11413,106.89309,18.0,4/30/2023 15:45,3500.0
GSWV527I5E06YH,6554300000000000.0,dki,"Wasis Santoso, S.T.",M,1978,JAK.43B,Tongtek - Tebet Eco Park (TEP) - Cililitan,0,B04736P,Simpang Bukit Duri Selatan,-6.221135,106.85519,7,2023-04-30 11:36:00,B03675P,Sbr. Jln. Cikoko Timur I,-6.244364,106.85867,19.0,4/30/2023 12:54,0.0
HBGN550D8C96GW,3541500000000000.0,dki,Juli Laksmiwati,M,1981,6H,Senen - Lebak Bulus,1,P00121,Kuningan Timur,-6.234731,106.82902,15,2023-04-30 19:06:00,B02291P,Masjid Cut Meutia 1,-6.186763,106.834,27.0,4/30/2023 20:03,3500.0
TKCU768J9Y45PD,4829130000000000.0,dki,Dalima Rahmawati,M,1995,JAK.30,Grogol - Meruya via Roxy,0,B02467P,Mitra 10 Meruya Ilir,-6.196032,106.75605,40,2023-04-30 16:41:00,B00620P,Gerbang Tol Meruya Selatan 1,-6.20619,106.73882,54.0,4/30/2023 18:03,0.0
LOLI881Y1W34LK,347537000000000.0,emoney,"Mala Megantara, S.Farm",M,1968,JAK.75,Cililitan - Kp. Pulo,0,B00155P,BKN 2,-6.258262,106.86984,12,2023-04-30 08:50:00,B04404P,Sbr. Seksi Dinas Pendidikan Makasar,-6.275565,106.87668,27.0,4/30/2023 9:11,0.0
RZUP678J5V34TN,3581100000000000.0,dki,drg. Titi Gunarto,M,2002,JAK.16,Cililitan - Condet,1,B03442P,Sbr. Akses Jembatan Ciliwung Balekambang,-6.283464,106.84945,12,2023-04-30 08:14:00,B03167P,RS Polri Jaktim,-6.27067,106.86732,30.0,4/30/2023 8:37,0.0
QKPR235H5C31ZD,4905030000000000.0,dki,Yessi Widiastuti,M,2007,6,Ragunan - Dukuh Atas 2,1,P00273,Warung Jati,-6.262364,106.82977,11,2023-04-30 16:43:00,P00024,Buncit Indah,-6.274333,106.83029,12.0,4/30/2023 17:08,3500.0
XXLV592K4S85UU,4.05719e+18,brizzi,"Ir. Cornelia Santoso, S.E.I",F,1993,JAK.11,Tanah Abang - Kebayoran Lama,0,B00320P,DPP FPI,-6.194368,106.80536,15,2023-04-30 09:47:00,B04391P,Sbr. Sekolah Lamuel,-6.198765,106.80317,17.0,4/30/2023 10:05,0.0
QRLY554R2U68PM,3589870000000000.0,dki,H. Karman Sitorus,M,1990,10K,Tanjung Priok - Senen via Taman BMW,1,B03645P,Sbr. Jln. Bak Air 1,-6.115009,106.87222,37,2023-04-30 13:46:00,B05728P,Term. Tj. Priok 1,-6.1098,106.88118,38.0,4/30/2023 14:43,3500.0
MBWE366J2M34BU,348020000000000.0,emoney,Dodo Budiyanto,F,1991,JAK.37,Cililitan - Condet via Kayu Manis,1,B04824P,Simpang H. Ali Kramat Barat,-6.291941,106.86585,16,2023-04-30 07:30:00,B01956P,Kel. Tengah,-6.290037,106.86477,18.0,4/30/2023 9:19,0.0
BDFZ571J6R09HC,4403980000000000.0,dki,Baktiadi Wulandari,F,2006,,,1,B04581P,Sbr. Versailles,-6.308522,106.67339,3,2023-04-30 05:37:00,B05701P,Term. BSD,-6.306375,106.68536,4.0,4/30/2023 6:11,20000.0
MGPN327D8G02XQ,6515830000000000.0,dki,"Prayogo Maryadi, S.T.",F,1991,4C,TU Gas - Bundaran Senayan,1,P00189,Pramuka LIA,-6.192238,106.86858,18,2023-04-30 11:11:00,P00127,Layur,-6.193539,106.89909,24.0,4/30/2023 12:21,3500.0
EHPU151Q2E62AL,4328340000000000.0,dki,"Tgk. Paulin Sinaga, S.IP",F,2006,M1,Blok M - Kota,0,P00026,Bundaran Senayan,-6.227869,106.80094,3,2023-04-30 14:58:00,P00071,Gelora Bung Karno,-6.224217,106.8058,4.0,4/30/2023 16:16,3500.0
CBNW071Z9N65EG,4423480000000000.0,dki,"Nyana Anggraini, S.Pt",F,1981,M13,Puri Beta 2 - Tendean,0,P00096,JORR,-6.236104,106.75488,3,2023-04-30 12:52:00,P00136,Mayestik,-6.241921,106.79077,8.0,4/30/2023 14:19,3500.0
BEZM820J7R33TJ,2308270000000000.0,dki,"Asirwanda Yolanda, M.M.",M,2012,JAK.112,Terminal Tanah Merah - Pulo Gadung,0,B00169P,Boulevard Janur Elok Raya 1,-6.150581,106.90954,5,2023-04-30 21:04:00,B03000P,Pulo Gadung 5,-6.182228,106.90901,26.0,4/30/2023 22:19,0.0
VMIN705D5S61JE,6011680000000000.0,dki,"drg. Uli Purnawati, M.TI.",F,1989,JAK.02,Kampung Melayu - Duren Sawit,1,B01338P,Jln. Majalah,-6.232603,106.88758,18,2023-04-30 08:04:00,B06573P,SPBU Jln. DI Panjaitan,-6.233702,106.8766,26.0,4/30/2023 9:13,0.0
QSLI807B7W13BF,4939270000000000.0,dki,Kayla Sirait,F,1997,JAK.28,Kp. Rambutan - Taman Wiladatika,1,B00901P,Jln. Baru Tanah Merdeka,-6.307818,106.87362,32,2023-04-30 10:26:00,,,,,,,0.0
WSQX649M1R95WI,4.56454e+18,brizzi,Indra Kurniawan,F,1982,JAK.20,Cawang UKI - Lubang Buaya,0,B00092P,Bacang Lubang Buaya,-6.288956,106.89696,36,2023-04-30 05:43:00,B05751P,TK Angkasa 8,-6.285191,106.90125,39.0,4/30/2023 6:15,0.0
DDGT866O4S24RC,639009000000.0,flazz,"R. Kania Rahimah, S.H.",M,1982,4E,Rusun Jatinegara Kaum - Pulo Gadung,0,B00364P,Flyover Ps. Klender 2,-6.211371,106.90103,3,2023-04-30 08:34:00,B05798P,Transjakarta Pool Klender,-6.205191,106.90301,7.0,4/30/2023 10:25,0.0
HMHS851C2Q71NU,4550110000000000.0,dki,Kamaria Palastri,F,2000,B14,Bekasi Barat - Kuningan,0,P00011,Bekasi Barat,-6.250045,106.99167,4,2023-04-30 15:06:00,B00163P,BNI Syariah,-6.227256,106.83291,9.0,4/30/2023 16:32,20000.0
QEEE112K0F27SE,675957000000.0,flazz,Maryadi Pradana,F,2004,11P,Rusun Pondok Bambu - Walikota Jakarta Timur,1,B00368P,Flyover Radin Inten 1,-6.216112,106.92439,8,2023-04-30 20:17:00,B04518P,Sbr. Swadaya Raya,-6.228578,106.91633,16.0,4/30/2023 21:45,0.0
OHAK295A8P30SQ,4373400000000.0,online,"Sutan Karya Tampubolon, S.H.",F,2005,9F,Rusun Tambora - Pluit,0,P00125,Latumeten Stasiun Grogol Arah Selatan,-6.160376,106.79097,2,2023-04-30 21:45:00,P00093,Jembatan Tiga Arah Utara,-6.133383,106.79267,6.0,4/30/2023 22:04,0.0
FZDE028Q2W51KG,4748350000000000.0,dki,Darmana Suryono,M,1981,JAK.47,Pasar Minggu - Ciganjur via KB Ragunan,0,B03350P,SDN Cilandak Timur 01,-6.306334,106.81391,29,2023-04-30 14:30:00,B00035P,Ampera 1,-6.292069,106.81774,34.0,4/30/2023 15:06,0.0
JXSV130T7H89TS,4.53168e+18,brizzi,R.A. Hafshah Haryanti,F,1984,JAK.85,Bintara - Cipinang Indah,1,B03289P,Rusun Pondok Bambu,-6.241583,106.91085,8,2023-04-30 14:40:00,B03837P,Sbr. Jln. Selat Potinti,-6.236086,106.91635,17.0,4/30/2023 16:25,0.0
XLUC028K2O25CK,4767470000000000.0,dki,Gina Manullang,F,2003,12A,Pelabuhan Kaliadem - Kota,0,B01751P,Jembatan Kota Intan,-6.132329,106.81055,17,2023-04-30 10:52:00,P00013,Kota,-6.13679,106.8149,19.0,4/30/2023 11:30,3500.0
LRIL834B1F18SX,6581960000000000.0,dki,Asman Rahimah,M,1987,M7,Kampung Rambutan - Monas,0,P00251,Tegal Parang Arah Barat,-6.238863,106.83022,16,2023-04-30 07:02:00,P00051,Dukuh Atas,-6.205702,106.82223,22.0,4/30/2023 8:32,3500.0
SDGW997W2Z88TC,30243000000000.0,bni,Dirja Anggriawan,F,1999,7C,Cibubur - BKN,1,P00016,BKN,-6.257751,106.87,0,2023-04-30 21:19:00,B00248P,Cibubur Junction,-6.368735,106.89366,2.0,4/30/2023 22:56,3500.0
YTNX043F5J47SF,502016000000.0,flazz,Opan Prasetyo,M,1989,5B,Stasiun Tebet - BNN,0,P00070,Gelanggang Remaja,-6.235445,106.86795,10,2023-04-30 10:31:00,P00031,Cawang Otista,-6.243607,106.86876,11.0,4/30/2023 12:21,3500.0
HXDU900R1G96EH,6011600000000000.0,dki,"Puti Azalea Habibi, S.Farm",F,1999,D32,Cinere - Bundaran Senayan,1,B06073P,SPBU Limo Cinere 1,-6.343161,106.77878,5,2023-04-30 10:34:00,B05399P,South City Cinere,-6.34504,106.767638,6.0,4/30/2023 12:20,20000.0
WSLD348N3J46HI,4939660000000000.0,dki,Lintang Rajasa,M,1988,JAK.03,Lebak Bulus - Andara,0,B01480P,Jln. Pertanian II,-6.302022,106.77751,6,2023-04-30 15:37:00,B01493P,Jln. Pinang II Pondok Labu,-6.310414,106.79665,22.0,4/30/2023 17:10,0.0
NPFU146N4E52NO,3595540000000000.0,dki,Tari Manullang,M,2000,JAK.36,Cilangkap - Cililitan,0,B01726P,Jasamarga Toll Road Maintenance,-6.291584,106.8807,27,2023-04-30 19:59:00,B03029P,Pusdikkes,-6.277716,106.86938,47.0,4/30/2023 21:32,0.0
PRQJ845F2F95QO,4182250000000.0,online,Silvia Saputra,F,1978,JAK.48B,Stasiun Tebet - Kampung Melayu,0,B01731P,Jatinegara RS Primier 1,-6.221992,106.86818,12,2023-04-30 10:53:00,B04623P,Sekolah Cahaya Sakti Otista I,-6.225391,106.86708,15.0,4/30/2023 11:41,
NUJY904B8E47VV,4542980000000000.0,dki,Kamila Widodo,M,2004,,,0,P00216,Semanggi,-6.22111,106.81354,13,2023-04-30 12:07:00,P00075,Grogol 2 Arah Utara,-6.167253,106.78781,19.0,4/30/2023 13:52,3500.0
RLCS291H0H89RN,4.53551e+18,brizzi,Hartaka Rahimah,F,1988,11Q,Kampung Melayu - Pulo Gebang via BKT,1,P00270,Walikota Jakarta Timur,-6.21254,106.94537,26,2023-04-30 13:59:00,P00194,Pulo Gebang,-6.213275,106.953327,27.0,4/30/2023 15:51,3500.0
FYFN882E5A69RP,180087000000000.0,emoney,Gandewa Tarihoran,F,1989,5M,Kampung Melayu - Tanah Abang via Cikini,0,B02972P,Pospol Jati Bunder,-6.189707,106.81317,32,2023-04-30 16:13:00,B01787P,JPO Blok G,-6.188861,106.81135,33.0,4/30/2023 17:27,3500.0
HROX159W1C51TZ,6011580000000000.0,dki,Wage Utami,F,1984,,,0,B03155P,RS Mitra Keluarga 1,-6.240672,106.99317,1,2023-04-30 07:37:00,,,,,,,20000.0
LLFK185J3W55BY,30011900000000.0,bni,Ilsa Wibisono,F,1981,3A,Rusun Pesakih - Kalideres,0,B02833P,Pintu 2 Jembatan Semanan Raya,-6.155916,106.70954,4,2023-04-30 17:42:00,B01798P,Kalideres 1,-6.154249,106.70544,5.0,4/30/2023 18:41,0.0
DNVJ365N9S48HO,4682590000000000.0,dki,Bakianto Andriani,F,1983,JAK.46,Pasar Minggu - Jagakarsa,1,B01225P,Jln. Kebagusan Wates,-6.315014,106.82531,27,2023-04-30 16:06:00,B03370P,SDN Jagakarsa 01,-6.328189,106.82025,35.0,4/30/2023 16:33,0.0
KAOQ146U3L17AX,3512310000000000.0,dki,Uda Lailasari,M,1972,3B,Rusun Flamboyan - Cengkareng,0,B03206P,RSUD Boulevard Raya,-6.13781,106.7304,4,2023-04-30 05:19:00,B03009P,Puri Agung,-6.150977,106.72798,11.0,4/30/2023 7:11,0.0
VAAO203G3Z09IW,676196000000.0,flazz,"Tgk. Kamidin Pertiwi, S.Psi",M,1999,JAK.48B,Stasiun Tebet - Kampung Melayu,1,B00138P,Bidara Cina 1,-6.229954,106.86735,1,2023-04-30 06:21:00,B01994P,Klinik Otista,-6.227394,106.86709,4.0,4/30/2023 7:01,
QJBD775Z1H98EI,5312550000000000.0,dki,Langgeng Yolanda,F,1988,JAK.86,Term. Rawamangun - Term. Manggarai,0,B05723P,Term. Rawamangun,-6.198002,106.89099,0,2023-04-30 06:29:00,B00354P,Flyover Jatinegara 1,-6.215301,106.87356,15.0,4/30/2023 8:15,0.0
CINR791O8K29CX,213109000000000.0,emoney,"Digdaya Usada, M.Kom.",F,2009,S12,BSD Serpong - Fatmawati,0,B05852P,Versailles,-6.308405,106.67367,2,2023-04-30 16:40:00,B05488P,St. MRT Fatmawati,-6.292589,106.7936,3.0,4/30/2023 17:40,20000.0
UABN098I2S16AK,4314130000000000.0,dki,Joko Maheswara,M,2004,9E,Kebayoran Lama - Jelambar,0,P00190,Ps. Palmerah,-6.207817,106.79695,11,2023-04-30 18:24:00,P00211,S Parman Podomoro City Arah Barat,-6.175587,106.79223,14.0,4/30/2023 19:39,3500.0
LYWQ729K0N86YZ,30553200000000.0,bni,Salsabila Widodo,F,1996,JAK.47,Pasar Minggu - Ciganjur via KB Ragunan,1,B03905P,Sbr. Kec. Pasar Minggu,-6.285526,106.83549,8,2023-04-30 21:50:00,B01847P,Kav Polri Blok H Jagakarsa,-6.312293,106.81629,24.0,4/30/2023 23:49,0.0
KQXR760G9M56OF,589394000000.0,flazz,Harja Nashiruddin,M,1992,,Tanjung Priok - Senen via Taman BMW,0,B01681P,Jln. Timah Harapan Mulya,-6.171922,106.85232,27,2023-04-30 14:40:00,B01383P,Jln. Melati Senen,-6.176615,106.84444,32.0,4/30/2023 15:47,3500.0
LQCX175U1P82PB,3518080000000000.0,dki,Cinta Prabowo,F,2003,3E,Puri Kembangan - Sentraland Cengkareng,1,B04643P,Sekolah Pah Tsung,-6.136693,106.73785,21,2023-04-30 13:57:00,B04682P,Sentraland Cengkareng,-6.139078,106.739378,22.0,4/30/2023 14:45,3500.0
JRGF963U4A30LL,6011610000000000.0,dki,Ibrahim Namaga,M,1987,JAK.28,Kp. Rambutan - Taman Wiladatika,1,B05857P,Viekontama Perkasa Cibubur,-6.344548,106.87076,14,2023-04-30 14:19:00,B02188P,Mall Cijantung,-6.312041,106.86245,28.0,4/30/2023 14:45,0.0
UHQT520N9J38EL,4135290000000000.0,dki,Oliva Ardianto,F,1974,M1,,1,P00292,Harmoni Arah Selatan,-6.162687,106.81992,7,2023-04-30 19:59:00,P00012,Bendungan Hilir,-6.217137,106.81528,15.0,4/30/2023 21:39,3500.0
HRAF962D0Z38GE,4.91126e+18,brizzi,Edward Puspita,F,1965,10B,Rusun Cipinang Besar Selatan - Penas Kalimalang,1,B00264P,Cipinang Kb. Nanas 1,-6.231595,106.87615,2,2023-04-30 15:04:00,B05535P,STMT Trisakti 1,-6.231933,106.87782,4.0,4/30/2023 15:36,0.0
AMYY995C8L53VE,4446630000000000.0,dki,KH. Baktianto Permata,F,1987,JAK.113,Rusun Sindang Koja - Kp. Sawah,1,B01327P,Jln. Lorong 5,-6.107716,106.8955,21,2023-04-30 13:27:00,B01326P,Jln. Lorong 4,-6.107701,106.89492,22.0,4/30/2023 14:08,0.0
JJRT368P0O71LC,4845840000000.0,online,Makara Gunawan,F,1995,2E,Rusun Rawa Bebek - Kodamar,0,B05300P,SMK Ristek Kikin,-6.206887,106.93519,9,2023-04-30 07:12:00,B00031P,Al Wathoniyah 1,-6.192036,106.9353,16.0,4/30/2023 8:45,0.0
HKQS629E7V55NF,4384640000000000.0,dki,"Citra Budiman, M.M.",M,1994,7E,Kampung Rambutan - Ragunan,0,P00060,Flyover Raya Bogor,-6.3065,106.8657,7,2023-04-30 09:44:00,B02831P,Phe Tower Kebagusan,-6.299876,106.83323,16.0,4/30/2023 10:00,3500.0
AWFX005N2Y24VT,4898970000000.0,online,Mursita Pratiwi,F,1979,JAK.39,Kalimalang - Duren Sawit,1,B00643P,Giant Ekspres Pondok Kopi,-6.226153,106.94363,5,2023-04-30 11:40:00,B03363P,SDN Duren Sawit 02,-6.22516,106.91453,24.0,4/30/2023 12:46,0.0
AMZK014I3E19YO,4229150000000.0,online,Yessi Usada,M,1968,11M,Rusun Rawa Bebek - Bukit Duri,1,B02282P,Masjid Attahiriyah,-6.225242,106.86019,0,2023-04-30 13:39:00,,Walikota Jakarta Timur,-6.21254,106.94537,13.0,4/30/2023 15:13,0.0
ANPT056Y3H84NI,30297300000000.0,bni,"R.A. Fitriani Situmorang, M.Kom.",F,1998,JAK.16,Cililitan - Condet,0,B05110P,Simpang Raya Bogor Cililitan,-6.264191,106.86585,1,2023-04-30 05:30:00,B04717P,Simpang Batu Pandan 1,-6.284209,106.85689,18.0,4/30/2023 5:48,0.0
ZOWU885C1U22BI,4.80469e+18,brizzi,Dewi Mardhiyah,M,1990,JAK.61,Cempaka Putih - Pulo Gadung via Kelapa Gading,1,B03050P,Puskesmas Kelapa Gading,-6.157489,106.90703,20,2023-04-30 10:45:00,B01741P,Jembatan Cempaka Mas Utara,-6.16198,106.87432,42.0,4/30/2023 12:13,0.0
XMXJ416X8J53XO,2702840000000000.0,dki,Ir. Diana Mahendra,F,1996,JAK.115,Term. Tj. Priok - Pegangsaan II IGI,0,B06592P,SPBU Tugu Selatan,-6.13437,106.91585,22,2023-04-30 10:37:00,B04161P,Sbr. Ps. Mandiri Kelapa Gading,-6.160953,106.90872,34.0,4/30/2023 12:16,0.0
ERXN051U0Q54RC,213132000000000.0,emoney,Novi Permadi,F,2012,11B,Rusun Rawa Bebek - Penggilingan,1,B06652P,Penggilingan 1,-6.214459,106.93945,0,2023-04-30 11:38:00,B03291P,Rusun Rawa Bebek,-6.196241,106.9658,2.0,4/30/2023 12:36,0.0
FJWH971S3L31OA,180059000000000.0,emoney,Paiman Wasita,F,1989,3B,Rusun Flamboyan - Cengkareng,0,B02195P,Mall Taman Palem 3,-6.140548,106.73011,6,2023-04-30 10:53:00,B03073P,Ramayana Cengkareng,-6.153197,106.72803,12.0,4/30/2023 11:53,0.0
QNTE756Z5K30SW,3588890000000000.0,dki,Michelle Pradipta,F,1995,JAK.115,,1,B06606P,Jln. H. Oyar,-6.17692,106.91824,2,2023-04-30 15:08:00,B02191P,Mall Kelapa Gading,-6.156338,106.90815,9.0,4/30/2023 15:49,0.0
JYAD454O5R15IY,3510750000000000.0,dki,"Indah Hartati, S.I.Kom",F,2009,11M,Rusun Rawa Bebek - Bukit Duri,0,P00270,Walikota Jakarta Timur,-6.21254,106.94537,1,2023-04-30 16:58:00,P00151,Pasar Enjo,-6.214881,106.87819,11.0,4/30/2023 17:34,0.0
DRFI402M0D01NU,180001000000000.0,emoney,Catur Tamba,F,1993,4C,TU Gas - Bundaran Senayan,1,B06321P,RSCM 2,-6.197078,106.84803,14,2023-04-30 11:36:00,P00189,Pramuka LIA,-6.192238,106.86858,18.0,4/30/2023 12:00,3500.0
XBYJ553X8U41WP,4254430000000000.0,dki,Cut Zahra Hardiansyah,F,1992,11C,Rusun Pinus Elok - Rusun Pulo Gebang,1,B06655P,Walikota Jakarta Timur 2,-6.212722,106.94472,4,2023-04-30 15:19:00,B05200P,Simpang Tiga 1,-6.210708,106.93903,7.0,4/30/2023 15:52,0.0
SWXK617U9V68QN,213105000000000.0,emoney,"Raina Agustina, S.I.Kom",F,2002,JAK.45,Lebak Bulus - Ragunan,0,B05208P,Simpang Tridharma Bango Raya,-6.30308,106.80455,27,2023-04-30 17:26:00,B04712P,Simpang Bango Margasatwa,-6.310005,106.80361,31.0,4/30/2023 19:03,0.0
CLLI752A8I57VG,6011380000000000.0,dki,"T. Lembah Waluyo, M.TI.",F,1984,T21,Palem Semi - Bundaran Senayan,1,B02861P,Plaza Europa,-6.221188,106.61667,11,2023-04-30 21:14:00,B01440P,Jln. Palem Jepang Baru,-6.218391,106.61589,13.0,4/30/2023 21:58,20000.0
GCNU798S4T73SS,630405000000.0,flazz,"Ajiman Nababan, S.H.",F,2005,4B,Stasiun Manggarai - UI,1,B02647P,Pasar Minggu,-6.284413,106.84414,16,2023-04-30 13:21:00,B02045P,Komplek Keuangan,-6.234028,106.84417,34.0,4/30/2023 13:39,3500.0
IKJX123F9U09CA,378502000000000.0,emoney,Ir. Maida Sihombing,F,1995,S31,Bintaro - Fatmawati,1,B03177P,RS Siloam,-6.292071,106.78467,3,2023-04-30 16:06:00,B00229P,Carrefour Lebak Bulus,-6.287529,106.7768,4.0,4/30/2023 17:47,20000.0
TTIB965L8S55ON,36147800000000.0,bni,Kamidin Dabukke,F,1988,B13,Bekasi Barat - Blok M,1,B01853P,Kayuringin 2,-6.245948,106.99247,7,2023-04-30 09:31:00,,Summarecon Bekasi,-6.225566,107.00281,10.0,4/30/2023 10:29,20000.0
YDPW460I1M18WD,3522740000000000.0,dki,Talia Mardhiyah,F,2009,1K,Cibubur Junction - Blok M,0,B02012P,Komdak 1,-6.222333,106.81407,2,2023-04-30 17:07:00,B06579P,Blok M Jalur 4,-6.243474,106.80188,9.0,4/30/2023 17:40,20000.0
YFOK391M2O18YU,346408000000000.0,emoney,"Syahrini Wibisono, M.M.",F,2012,1E,Pondok Labu - Blok M,0,B02539P,One Belpark 2,-6.303784,106.79445,5,2023-04-30 10:29:00,B02860P,Plaza Blok M,-6.244978,106.79752,20.0,4/30/2023 11:52,3500.0
EHDZ424B0A56TA,346079000000000.0,emoney,Oliva Kuswoyo,F,1996,D11,Depok - BKN,1,B00584P,Gas Alam,-6.382128,106.86633,1,2023-04-30 15:21:00,B05521P,STIAMI 2,-6.377369,106.83281,6.0,4/30/2023 16:58,3500.0
YRFY741T1M70DG,349635000000000.0,emoney,Cawisadi Hartati,M,1993,,,1,P00036,Cempaka Putih,-6.174207,106.87642,8,2023-04-30 13:24:00,P00042,Cipinang Kebon Nanas,-6.231659,106.87637,16.0,4/30/2023 14:11,3500.0
UJUB469B7O52LX,213127000000000.0,emoney,Zalindra Yuliarti,F,1957,JAK.60,Kelapa Gading - Rusun Kemayoran,0,B02156P,Lotte Mart Kelapa Gading,-6.154215,106.89467,28,2023-04-30 21:34:00,B00166P,Boulevard Bukit Gading Raya,-6.15515,106.89579,29.0,4/30/2023 23:31,0.0
LMNF158P8J80PJ,379347000000000.0,emoney,Lanang Hassanah,M,1979,10K,Tanjung Priok - Senen via Taman BMW,1,B02306P,Masjid Jami Al Badariah Kemayoran,-6.153055,106.85922,23,2023-04-30 06:03:00,B05964P,Jln. RS Paru-Paru,-6.12671,106.85168,30.0,4/30/2023 7:27,3500.0
RTTJ619O1P82TS,4483350000000000.0,dki,"Eka Hariyah, S.Ked",F,1976,JAK.106,Terminal Kampung Melayu - Terminal Klender,1,B01009P,Jln. Cipinang Muara III,-6.220029,106.8995,18,2023-04-30 06:43:00,B06772P,Jln. Duren Sawit Dermaga 2,-6.220991,106.911835,20.0,4/30/2023 7:07,0.0
LRDF252F9S41EV,2260090000000000.0,dki,Maimunah Zulkarnain,M,2003,JAK.13,Tanah Abang - Jembatan Lima,1,B01647P,Jln. Tambora VI,-6.141703,106.80777,9,2023-04-30 18:52:00,B01648P,Jln. Tambora VI Gg. 2,-6.14285,106.80679,10.0,4/30/2023 20:46,0.0
UIOK803S7Q03IH,213128000000000.0,emoney,Martana Wacana,M,1974,JAK.106,Terminal Kampung Melayu - Terminal Klender,0,B04880P,Simpang Jatinegara Timur IV,-6.222277,106.86838,33,2023-04-30 16:12:00,B05707P,Term. Kampung Melayu 2,-6.224516,106.86685,36.0,4/30/2023 17:54,0.0
QSLH160B7Z49WP,180093000000000.0,emoney,"Dr. Mariadi Laksita, S.Gz",F,2001,JAK.17,Senen - Pulo Gadung,1,B00770P,Honda Letjen Suprapto,-6.174933,106.84973,6,2023-04-30 16:59:00,B04149P,Sbr. Ps. Johar Baru,-6.184282,106.85584,17.0,4/30/2023 18:00,0.0
WFUK457K8G26IW,502001000000.0,flazz,Garda Pudjiastuti,M,1988,7P,Pondok Kelapa - BKN,0,B01511P,Jln. Pondok Kelapa Selatan,-6.249524,106.93552,7,2023-04-30 18:28:00,B04644P,Sekolah Pami Jaya,-6.248519,106.92513,10.0,4/30/2023 19:55,3500.0
ITXT307D0R79LT,3515620000000000.0,dki,Atma Salahudin,F,1992,6H,Senen - Lebak Bulus,0,B02840P,Pintu Air Menteng,-6.19598,106.83266,21,2023-04-30 11:51:00,P00128,Lebak Bulus,-6.289413,106.77415,44.0,4/30/2023 13:25,3500.0
ZTDO194R1X95RP,639086000000.0,flazz,"Drs. Zahra Prakasa, M.Farm",F,1990,7,Kampung Rambutan - Bidara Cina,1,P00177,PGC 1,-6.262494,106.86635,10,2023-04-30 07:29:00,P00101,Kampung Rambutan,-6.309885,106.88216,16.0,4/30/2023 7:44,3500.0
ROIC219X1W19EM,4522060000000000.0,dki,"H. Jarwadi Nasyidah, M.Farm",M,1985,D32,Cinere - Bundaran Senayan,0,B00203P,Bukit Cinere Indah,-6.340012,106.77991,3,2023-04-30 21:11:00,B00222P,Bundaran Senayan 2,-6.227877,106.80068,6.0,4/30/2023 21:29,20000.0
XKPT509E2T15ZY,4589920000000000.0,dki,Hj. Hafshah Hutagalung,M,1989,5D,PGC 1 - Ancol,0,P00148,Pasar Baru Timur,-6.162272,106.83811,16,2023-04-30 08:22:00,,Ancol,-6.127563,106.83039,20.0,4/30/2023 10:06,3500.0
KIGK239J6E52KO,3523890000000000.0,dki,"Sutan Radika Haryanto, M.Pd",M,1975,JAK.120,JIS - Terminal Muara Angke,1,B00121P,Baywalk 1,-6.109908,106.77828,2,2023-04-30 06:18:00,B00085P,Aula Simfonia,-6.152158,106.8436,32.0,4/30/2023 7:48,0.0
RBRB131R2B00RW,36057100000000.0,bni,Jagaraga Nasyiah,F,1990,7Q,Blok M - PGC,1,B01794P,Kalibata City 1,-6.255951,106.85404,9,2023-04-30 05:46:00,B01509P,Jln. Poncol Jaya 1,-6.239706,106.81889,25.0,4/30/2023 7:01,3500.0
HMYT015Q7A12IS,2272130000000000.0,dki,"Eva Irawan, S.H.",F,1989,JAK.56,,0,B01270P,Jln. Kemanggisan Utama VII,-6.191061,106.7857,39,2023-04-30 15:31:00,B00784P,Hutan Kota Srengseng,-6.208678,106.76361,62.0,4/30/2023 17:17,0.0
XEGR391H9X79WS,4304350000000.0,online,"Putri Ramadan, S.T.",F,2012,2B,Harapan Indah - ASMI,0,P00258,Tipar Cakung,-6.183387,106.92463,17,2023-04-30 06:08:00,B02998P,Pulo Gadung 3,-6.181757,106.90867,20.0,4/30/2023 6:43,3500.0
WDBD384U9F62QY,4.8223e+18,brizzi,Ulva Wibowo,M,1969,JAK.30,Grogol - Meruya via Roxy,0,B02046P,Komplek Keuangan Saaba,-6.215101,106.73151,62,2023-04-30 12:34:00,B02817P,Perumahan Walikota Jakbar 2,-6.213297,106.72492,67.0,4/30/2023 14:08,0.0
CAHU992S7F49ZZ,180046000000000.0,emoney,Safina Wibowo,F,1993,5F,Kampung Melayu - Tanah Abang,0,B03395P,Pal Batu 3,-6.225075,106.84149,9,2023-04-30 05:36:00,B01207P,Jln. Karet Pasar Baru Barat VII,-6.212105,106.81764,19.0,4/30/2023 6:49,3500.0
GTRB637D7Q93MM,4.94131e+18,brizzi,"Ir. Najib Melani, S.Kom",M,1957,JAK.01,Tanjung Priok - Plumpang,0,B06902P,Jln. Swasembada Timur 5,-6.124986,106.893289,25,2023-04-30 18:43:00,B01059P,Jln. Flamboyan Berdikari,-6.120868,106.89439,28.0,4/30/2023 19:34,0.0
WPDK356D0J79UK,213162000000000.0,emoney,Chelsea Sirait,F,1977,9A,PGC 2 - Grogol 2,0,P00018,BNN Arah Barat,-6.24651,106.87318,3,2023-04-30 18:09:00,P00216,Semanggi,-6.22111,106.81354,13.0,4/30/2023 19:44,3500.0
NPSI254B6O15TI,213165000000000.0,emoney,Jaka Haryanto,F,1995,,,0,P00171,Permai Koja Arah Utara,-6.11413,106.89309,19,2023-04-30 11:58:00,P00248,Tanjung Priok,-6.10959,106.88214,21.0,4/30/2023 12:32,3500.0
ATHE469C9J90VU,3533120000000000.0,dki,Kasiyah Marbun,F,1986,R1A,Pantai Maju - Kota,1,B06049P,Melody Golf,-6.091746,106.7461,40,2023-04-30 12:17:00,B06040P,Pantai Maju,-6.093637,106.75068,41.0,4/30/2023 12:46,3500.0
HLUR547L5E61MV,3559860000000000.0,dki,Restu Haryanto,F,2000,13B,Puri Beta - Pancoran Barat,0,P00242,Swadarma,-6.23755,106.76065,4,2023-04-30 12:40:00,P00106,Kebayoran Lama,-6.23834,106.77752,7.0,4/30/2023 13:24,3500.0
TDVD313M9N98GP,6011070000000000.0,dki,Artanto Pudjiastuti,M,1968,5C,PGC - Juanda,0,P00224,Slamet Riyadi,-6.208533,106.85929,9,2023-04-30 05:35:00,P00122,Kwitang,-6.181051,106.83866,16.0,4/30/2023 6:05,3500.0
RZSS972N9H25PW,4676790000000000.0,dki,"Gawati Latupono, S.T.",M,2002,7C,Cibubur - BKN,0,B00248P,Cibubur Junction,-6.368735,106.89366,0,2023-04-30 20:55:00,P00016,BKN,-6.257751,106.87,1.0,4/30/2023 21:22,3500.0
HTDD310L2V41IC,346262000000000.0,emoney,"Emil Salahudin, S.Pt",F,2009,S12,BSD Serpong - Fatmawati,0,B05726P,Term. Shuttle BSD,-6.305588,106.67997,1,2023-04-30 07:13:00,B05852P,Versailles,-6.308405,106.67367,2.0,4/30/2023 8:12,20000.0
