transID,payCardID,payCardBank,payCardName,payCardSex,payCardBirthDate,corridorID,corridorName,direction,tapInStops,tapInStopsName,tapInStopsLat,tapInStopsLon,stopStartSeq,tapInTime,tapOutStops,tapOutStopsName,tapOutStopsLat,tapOutStopsLon,stopEndSeq,tapOutTime,payAmount
WJBV706U0B06MD,348190000000000.0,emoney,"T. Ibun Maheswara, S.Sos",M,1976,JAK.43C,Sarana Jaya - Tebet Eco Park (TEP) - Stasiun Cawang,0,B06674P,Tebet Eco Park Selatan 4,-6.239215,106.8519,4,2023-04-15 07:26:00,B06675P,Tebet Eco Park Selatan 5,-6.241581,106.85242,5.0,4/15/2023 8:25,0.0
FOXX482M9K56FB,30117500000000.0,bni,"Kartika Utama, S.Gz",M,1970,6N,Ragunan - Blok M via Kemang,0,B02364P,Masjid Nurul Falah,-6.257714,106.81326,20,2023-04-15 07:39:00,B01261P,Jln. Kemang 1,-6.255574,106.8118,21.0,4/15/2023 7:58,3500.0
LETC216W4L39CF,4245530000000.0,online,Dadap Mardhiyah,M,2004,3A,Rusun Pesakih - Kalideres,0,B02379P,Masjid Raya KH Hasyim Asyari,-6.159272,106.71708,1,2023-04-15 11:28:00,B01760P,Jembatan Pesakih Semanan,-6.155824,106.716,2.0,4/15/2023 12:10,0.0
BNZD829G5Z22RB,3543070000000000.0,dki,Wani Winarsih,M,1999,JAK.05,Semper - Rorotan,0,B00534P,Gg. Pos Ayam,-6.120971,106.92694,32,2023-04-15 08:17:00,B02881P,PLN Pusat Raya Tugu,-6.128057,106.92596,44.0,4/15/2023 8:38,0.0
YQFE661K1R14VD,3546550000000000.0,dki,Rika Wulandari,F,1995,4F,,1,B02847P,Pintu Kawasan 1,-6.189631,106.90646,4,2023-04-15 12:27:00,B00881P,Jln. Bacang Lubang Buaya,-6.288935,106.89713,44.0,4/15/2023 13:45,3500.0
RWRV279M7T06OP,4986430000000000.0,dki,Ida Simanjuntak,F,1982,S31,Bintaro - Fatmawati,1,B05488P,St. MRT Fatmawati,-6.292589,106.7936,0,2023-04-15 16:50:00,B00402P,Gg. Ampera BMW Astra,-6.292546,106.790025,1.0,4/15/2023 18:28,20000.0
UHHT796I6U50YI,344567000000000.0,emoney,"R. Kamaria Widiastuti, S.I.Kom",F,1992,JAK.46,Pasar Minggu - Jagakarsa,1,B01062P,Jln. Gabus Raya,-6.301222,106.83623,17,2023-04-15 14:20:00,B05329P,SMP Dan SMK Bakti 17,-6.348009,106.80965,40.0,4/15/2023 15:25,0.0
VZMA297A7B74DE,4268520000000000.0,dki,"drg. Gadang Lestari, M.Pd",M,1995,5N,Kampung Melayu - Ragunan,0,B00425P,Gg. Borobudur Ragunan,-6.306803,106.81679,49,2023-04-15 19:20:00,B00568P,Gg. Tamansari Ragunan,-6.305488,106.81614,50.0,4/15/2023 21:16,3500.0
YNAO567C0Q52DE,6514690000000000.0,dki,Kamal Wahyudin,M,1997,M4,Pulo Gadung 2 - Dukuh Atas 2,0,P00127,Layur,-6.193539,106.89909,12,2023-04-15 05:57:00,P00263,TU Gas,-6.19241,106.90489,13.0,4/15/2023 7:47,3500.0
HOSW642S8F89RZ,213161000000000.0,emoney,"Rika Pradana, S.Kom",M,1991,3E,Puri Kembangan - Sentraland Cengkareng,1,B02066P,Komplek Ruko Interkota,-6.166979,106.72717,7,2023-04-15 13:22:00,B04902P,Simpang Kapuk Cengkareng,-6.1343,106.73051,19.0,4/15/2023 14:21,3500.0
URNE469U3Y02VO,372730000000000.0,emoney,"drg. Dian Lazuardi, S.Pd",M,1985,JAK.88,Terminal Tanjung Priok - Ancol Barat,0,B02922P,Pompa VIaduct Ancol,-6.131663,106.83107,24,2023-04-15 12:23:00,B05286P,Smarthomm,-6.131055,106.82819,26.0,4/15/2023 14:00,0.0
ECST646B4N19RX,4027300000000000.0,dki,"Sutan Lantar Padmasari, S.Pd",F,1985,2E,Rusun Rawa Bebek - Kodamar,1,B05875P,Warung Jengkol,-6.182362,106.9113,7,2023-04-15 09:01:00,B01807P,Kampung Padaengan 2,-6.189465,106.93484,11.0,4/15/2023 10:30,0.0
VMQV891W8M41AS,3596570000000000.0,dki,Raden Mandala,M,2006,4F,Pinang Ranti - Pulo Gadung,1,B02020P,Komplek Beacukai Pondok Bambu,-6.23585,106.89759,19,2023-04-15 13:05:00,B05120P,Simpang Raya Pondok Gede 1,-6.284753,106.91028,39.0,4/15/2023 14:08,3500.0
SMWH340L0Y19AD,2706150000000000.0,dki,Jindra Nashiruddin,M,1998,7F,Kampung Rambutan - Juanda via Pasar Baru,1,P00153,Pasar Induk Kramat Jati,-6.294215,106.87203,12,2023-04-15 19:38:00,P00247,Tanah Merdeka Arah Timur,-6.307866,106.87389,15.0,4/15/2023 19:53,3500.0
LFGR143G8S83IF,5101630000000000.0,dki,"Tgk. Cawuk Saragih, S.Gz",M,1979,JAK.64,Lenteng Agung - Aseli,1,B04124P,Sbr. Panti Asuhan Desa Putra,-6.3391,106.82848,0,2023-04-15 06:39:00,,RS Zahirah,-6.335452,106.82382,18.0,4/15/2023 7:41,0.0
DXWE619V6H55UV,575760000000.0,flazz,Rahmi Maheswara,F,1992,,,0,P00135,Matraman 2,-6.19891,106.8545,12,2023-04-15 09:46:00,P00160,Patra Kuningan,-6.232677,106.832087,20.0,4/15/2023 10:24,3500.0
ENKO632L7O75DK,4308410000000.0,online,"Almira Prayoga, M.Pd",F,1977,5M,Kampung Melayu - Tanah Abang via Cikini,0,B01639P,Jln. Taman Kb. Sirih,-6.182295,106.81661,28,2023-04-15 17:57:00,B00159P,Blok F,-6.188552,106.81249,31.0,4/15/2023 19:10,3500.0
GCAC241B7B30AG,4861640000000000.0,dki,KH. Saka Laksmiwati,F,2007,JAK.51,Taman Kota - Budi Luhur,0,B02536P,Olieku Jln. Aries Permai,-6.197188,106.74819,31,2023-04-15 16:47:00,B04932P,Simpang Kembangan Raya 2,-6.176148,106.74794,42.0,4/15/2023 17:13,0.0
THMY840S9Q20QP,2265010000000000.0,dki,Bagas Prasasta,F,1990,10H,Tanjung Priok - Blok M,0,P00225,Slipi Kemanggisan Arah Selatan,-6.189781,106.79726,11,2023-04-15 09:22:00,P00133,Masjid Agung,-6.236483,106.79845,15.0,4/15/2023 10:54,3500.0
CKQW419H6M67KZ,6503420000000000.0,dki,Vanya Setiawan,F,2010,6T,Pasar Minggu - Velbak,1,B04438P,Sbr. SMK 57,-6.291191,106.82342,24,2023-04-15 05:41:00,B06030P,Kel. Jati Padang,-6.285899,106.83476,29.0,4/15/2023 7:12,3500.0
LVJV203L9Y39ZF,3561970000000000.0,dki,Salsabila Simbolon,M,1969,12A,Pelabuhan Kaliadem - Kota,0,B02361P,Masjid Luar Batang,-6.126266,106.8044,14,2023-04-15 14:25:00,P00138,Museum Fatahillah,-6.13393,106.81209,18.0,4/15/2023 15:04,3500.0
XCPX063P7C93VR,6529540000000000.0,dki,Okta Sitorus,M,1988,,,1,P00209,RS Tarakan,-6.171146,106.81011,3,2023-04-15 19:13:00,P00211,S Parman Podomoro City Arah Barat,-6.175587,106.79223,5.0,4/15/2023 20:05,3500.0
IGYJ457W5R13CQ,3576940000000000.0,dki,Raisa Mandasari,F,2007,12P,St. LRT Pegangsaan Dua - JIS,1,B02156P,Lotte Mart Kelapa Gading,-6.154215,106.89467,10,2023-04-15 10:41:00,B01932P,Kel. Pegangsaan Dua,-6.1546,106.91056,14.0,4/15/2023 11:56,3500.0
KGKC138V0L44AP,344412000000000.0,emoney,"Adiarja Tamba, S.Kom",M,1997,11B,Rusun Rawa Bebek - Penggilingan,0,B06653P,Penggilingan 2,-6.214423,106.93973,2,2023-04-15 16:08:00,B06652P,Penggilingan 1,-6.214459,106.93945,3.0,4/15/2023 16:58,0.0
EJGX831E3J34WF,180007000000000.0,emoney,Ratna Wijayanti,M,1979,1T,Cibubur - Balai Kota,1,,Tosari 1,-6.199166,106.82334,6,2023-04-15 08:37:00,B00360P,Flyover Karet 2,-6.214808,106.81847,11.0,4/15/2023 10:08,20000.0
JAFV811Q8C03UH,377015000000000.0,emoney,Eman Puspasari,F,1996,1N,Tanah Abang - Blok M,1,B00158P,Blok E,-6.18497,106.81463,21,2023-04-15 12:32:00,P00083,Jak Lingko Tanah Abang,-6.185496,106.81105,27.0,4/15/2023 13:06,3500.0
VXGT002M6J02AQ,38696000000000.0,bni,Ir. Vero Mulyani,M,1970,S11,BSD - Jelambar,0,B03096P,Rest Area Km 13 Merak Jakarta,-6.214273,106.67784,23,2023-04-15 06:42:00,P00087,Jelambar,-6.166548,106.78651,26.0,4/15/2023 8:30,3500.0
ROOK248R1Y62RY,639013000000.0,flazz,"Dwi Widiastuti, S.Gz",M,1950,JAK.14,Tanah Abang - Meruya,0,P00083,Jak Lingko Tanah Abang,-6.185496,106.81105,0,2023-04-15 09:19:00,,Binus University,-6.201811,106.78265,33.0,4/15/2023 10:12,0.0
DVWI852J5M62RZ,4959610000000.0,online,Purwadi Halimah,F,1970,13B,Puri Beta - Pancoran Barat,0,P00242,Swadarma,-6.23755,106.76065,4,2023-04-15 12:45:00,P00043,Cipulir,-6.237818,106.76541,5.0,4/15/2023 13:00,3500.0
FUSF779R8D95JQ,30306600000000.0,bni,Gambira Padmasari,F,1992,JAK.45,Lebak Bulus - Ragunan,1,B04429P,Sbr. SMAN 66,-6.306177,106.80368,24,2023-04-15 18:10:00,B03962P,Sbr. Komplek Ddn 1,-6.303398,106.79896,33.0,4/15/2023 19:41,0.0
YLSH921B2S80HH,6011030000000000.0,dki,"Joko Marpaung, M.Farm",F,2008,3H,Jelambar - Kota,0,P00139,Olimo,-6.1493,106.81669,6,2023-04-15 08:07:00,P00072,Glodok,-6.1445,106.81545,7.0,4/15/2023 9:39,
QHTG442C5Y55OM,5117000000000000.0,dki,"dr. Nugraha Suartini, S.Psi",M,1987,1,Blok M - Kota,0,P00183,Polda Metro Jaya,-6.221094,106.81028,5,2023-04-15 19:27:00,P00261,Tosari,-6.196892,106.82309,9.0,4/15/2023 21:05,3500.0
ZAIQ379U6O01AS,4187090000000000.0,dki,Sakti Santoso,F,1989,10D,Kampung Rambutan - Tanjung Priok,1,P00267,Utan Kayu Rawamangun,-6.197515,106.87404,5,2023-04-15 20:53:00,P00196,Pulo Mas Bypass,-6.176953,106.876,8.0,4/15/2023 22:14,3500.0
RAHP773I0W80BG,6011110000000000.0,dki,Vega Handayani,F,1984,JAK.45,Lebak Bulus - Ragunan,0,B03928P,Sbr. Kel. Pondok Labu,-6.30655,106.79871,22,2023-04-15 05:18:00,B03818P,Sbr. Jln. Pinang IV Pondok Labu,-6.307453,106.80072,23.0,4/15/2023 6:03,0.0
MGTL565J1B34BM,2397590000000000.0,dki,Tgk. Daliman Mayasari,F,1992,B13,Bekasi Barat - Blok M,0,B02397P,Mega Mall Bekasi,-6.250287,106.992,3,2023-04-15 07:05:00,B05544P,Summitmas,-6.225826,106.80402,8.0,4/15/2023 7:38,20000.0
UHMB908O0S45KB,2242480000000000.0,dki,Ilyas Widiastuti,F,1982,JAK.13,Tanah Abang - Jembatan Lima,0,B03105P,Roxy Square,-6.166209,106.79957,14,2023-04-15 08:07:00,B05705P,Term. Grogol 2,-6.16618,106.79329,17.0,4/15/2023 8:50,0.0
JBJJ189D3H01ZJ,30177800000000.0,bni,Cakrawangsa Pudjiastuti,F,1982,10A,Rusun Marunda - Tanjung Priok,1,B00137P,Bidara 2,-6.106075,106.95942,3,2023-04-15 16:55:00,B03265P,Rumah Sipitung,-6.100075,106.96054,5.0,4/15/2023 18:13,0.0
OGPX485I8D20IY,180084000000000.0,emoney,Kuncara Prastuti,M,1996,BW9,Monas - Pantai Indah Kapuk,1,B02832P,PIK Avenue,-6.108595,106.73978,5,2023-04-15 06:09:00,B02476P,Monas 2,-6.175999,106.82311,7.0,4/15/2023 6:29,0.0
XGDU859Z2F82LY,3518230000000000.0,dki,Gabriella Winarno,M,1992,JAK.22,,0,B02141P,Lion Center,-6.240451,106.87898,13,2023-04-15 17:06:00,B00235P,Cawang Soetoyo 2,-6.245259,106.876,15.0,4/15/2023 18:24,0.0
RZDJ784B6T53RX,589684000000.0,flazz,"Halima Puspasari, S.H.",M,2005,JAK.28,Kp. Rambutan - Taman Wiladatika,1,B03344P,SDN Cibubur 01,-6.354808,106.87871,5,2023-04-15 11:11:00,B02075P,Komplek Zeni Raya Bogor,-6.340042,106.86903,17.0,4/15/2023 11:59,0.0
MDSP004Q0W56VR,30259800000000.0,bni,Dariati Simanjuntak,M,1966,7F,Kampung Rambutan - Juanda via Pasar Baru,1,P00247,Tanah Merdeka Arah Timur,-6.307866,106.87389,15,2023-04-15 07:40:00,P00101,Kampung Rambutan,-6.309885,106.88216,16.0,4/15/2023 9:39,3500.0
ZAVZ972C4K05HG,30356600000000.0,bni,Keisha Siregar,F,1991,JAK.36,Cilangkap - Cililitan,1,B03438P,Sbr. Agrowisata Cilangkap,-6.339822,106.90147,29,2023-04-15 10:30:00,B01711P,Jln. Waru Raya Cilangkap,-6.341002,106.90437,31.0,4/15/2023 11:16,0.0
QJCE443Q9F60EI,2284130000000000.0,dki,T. Karsana Halim,F,2003,JAK.08,Roxy - Benhil,1,B02972P,Pospol Jati Bunder,-6.189707,106.81317,20,2023-04-15 21:49:00,P00083,Jak Lingko Tanah Abang,-6.185496,106.81105,22.0,4/15/2023 23:10,0.0
NOPZ490J7I40SL,30185500000000.0,bni,"Dt. Ajimat Pratiwi, S.IP",M,1992,JAK.54,Grogol - Benhil,1,B04293P,Sbr. RS Pelni Petamburan,-6.192916,106.80556,23,2023-04-15 19:44:00,B04391P,Sbr. Sekolah Lamuel,-6.198765,106.80317,27.0,4/15/2023 21:13,0.0
LOAJ860Z2Y55SH,4.55591e+18,brizzi,Wirda Uwais,M,2011,M4,Pulo Gadung 2 - Dukuh Atas 2,1,P00188,Pramuka BPKP,-6.192192,106.87401,8,2023-04-15 06:33:00,P00052,Dukuh Atas 2,-6.203276,106.82377,15.0,4/15/2023 6:53,3500.0
YDZR113A0U21NY,4.39991e+18,brizzi,Kania Nuraini,F,1989,T11,Poris Plawad - Bundaran Senayan,1,B00673P,Graha Kemenpora,-6.214153,106.79891,1,2023-04-15 14:39:00,B05676P,Tangerang City 2,-6.19454,106.63475,19.0,4/15/2023 16:21,3500.0
JIPP459K3W99TI,4558450000000.0,online,Cornelia Uwais,F,2012,7E,Kampung Rambutan - Ragunan,1,B00865P,Jln. Ar Ridho,-6.308148,106.86935,14,2023-04-15 20:32:00,P00101,Kampung Rambutan,-6.309885,106.88216,19.0,4/15/2023 21:14,3500.0
VVSR915T3M95GG,5492880000000000.0,dki,Tgk. Harsanto Yolanda,F,2006,1E,Pondok Labu - Blok M,1,B00695P,Grand Wijaya Dharmawangsa,-6.254752,106.80034,4,2023-04-15 09:06:00,B05584P,Taman DDN,-6.312565,106.7965,23.0,4/15/2023 9:25,3500.0
EYHL387K7L93UD,3552500000000000.0,dki,Aditya Waluyo,F,2002,6Q,Dukuh Atas - Casablanca via Epicentrum Raya,0,B02554P,Pal Batu 2,-6.224559,106.8446,5,2023-04-15 06:16:00,B00114P,UPT. LLHD 1,-6.22577,106.83507,8.0,4/15/2023 7:28,3500.0
YERP137P5A22QT,30492400000000.0,bni,Rachel Mandala,M,2009,JAK.31,,1,B03575P,Sbr. Gg. Yasto Cipete,-6.260998,106.80568,44,2023-04-15 16:39:00,B00245P,Child Care Pre School,-6.257557,106.8009,48.0,4/15/2023 16:57,0.0
PAEJ076O7A40JY,676236000000.0,flazz,Uchita Pradipta,F,2005,JAK.08,Roxy - Benhil,0,B05453P,St. Karet,-6.200377,106.81546,24,2023-04-15 05:32:00,B03650P,Sbr. Jln. Bendungan Hilir Gg. IV,-6.212801,106.81255,35.0,4/15/2023 6:15,0.0
OFXO035G1V27HC,4958650000000000.0,dki,Martaka Maulana,M,1975,M3,Kalideres - Bundaran HI via Veteran,1,P00175,Pesakih,-6.154803,106.71527,1,2023-04-15 07:11:00,P00009,Bank Indonesia Arah Selatan,-6.184784,106.82326,14.0,4/15/2023 7:38,3500.0
DXVB148L4F00HO,373142000000000.0,emoney,"Tgk. Siska Siregar, M.Farm",F,1971,10K,Tanjung Priok - Senen via Taman BMW,0,B05165P,Simpang Sunter Kemayoran Jaya,-6.153945,106.86067,15,2023-04-15 08:00:00,B01016P,Jln. D Utan Panjang III,-6.168769,106.85249,25.0,4/15/2023 9:38,3500.0
EWMJ163G2X62MK,6531920000000000.0,dki,Patricia Simbolon,M,1989,BW9,Monas - Pantai Indah Kapuk,1,B02475P,Monas 1,-6.172531,106.82315,6,2023-04-15 11:20:00,B02476P,Monas 2,-6.175999,106.82311,7.0,4/15/2023 12:51,0.0
DRVR286U1A71IT,3599930000000000.0,dki,Ir. Estiawan Wahyudin,F,2008,6C,,0,B02122P,Lapangan Ros,-6.225111,106.8546,1,2023-04-15 15:45:00,B04505P,Sbr. Standard Chartered,-6.217407,106.81934,22.0,4/15/2023 16:41,3500.0
HLIO766P0Y87LU,581907000000.0,flazz,Faizah Maryadi,F,1985,JAK.39,Kalimalang - Duren Sawit,1,B01424P,Jln. Nusa Indah IV,-6.218007,106.93406,14,2023-04-15 19:42:00,B03659P,Sbr. Jln. Buaran I,-6.221043,106.91661,21.0,4/15/2023 20:10,0.0
ETVZ328N0R37SG,6011790000000000.0,dki,Gaiman Novitasari,F,2011,9,Pinang Ranti - Pluit,1,P00205,RS Harapan Kita Arah Selatan,-6.185221,106.79709,8,2023-04-15 18:37:00,P00066,Gatot Subroto Jamsostek Arah Timur,-6.232602,106.82162,13.0,4/15/2023 19:20,3500.0
ATEA296N0W00VB,6572190000000000.0,dki,"Eli Lazuardi, S.Farm",M,1985,JAK.72,Kampung Rambutan - Pasar Rebo via Poncol,0,B00480P,Gg. H. Seman Susukan,-6.327213,106.86898,22,2023-04-15 13:22:00,B01342P,Jln. Makmur Raya Bogor,-6.309281,106.86352,47.0,4/15/2023 14:01,0.0
HLHC317U5R99GI,372925000000000.0,emoney,Vicky Prasetyo,F,2003,1,Blok M - Kota,0,P00071,Gelora Bung Karno,-6.224217,106.8058,4,2023-04-15 11:27:00,P00291,Harmoni Arah Utara,-6.162678,106.819663,14.0,4/15/2023 13:14,3500.0
CJXT165P5V21QX,4481240000000000.0,dki,Edward Maheswara,F,1984,JAK.06,Kampung Rambutan - Pondok Gede,0,B01303P,Jln. Kramat V Rawabinong,-6.300009,106.91039,23,2023-04-15 12:37:00,B03098P,Rindang Alam,-6.310511,106.9003,40.0,4/15/2023 14:22,0.0
JXUU108Y6D45RQ,30228700000000.0,bni,"Tgk. Raihan Sihombing, M.Farm",M,1993,2F,Rusun Cakung Barat - Pulo Gadung,0,B03298P,Rusun Tipar Cakung,-6.171493,106.93731,5,2023-04-15 14:53:00,B03267P,Rusun Cakung Barat Albo,-6.16751,106.93243,6.0,4/15/2023 16:13,0.0
RHUR352Y6J81FE,30332200000000.0,bni,"Tgk. Shania Siregar, S.Pd",F,1995,6P,,1,B05698P,Tempo Scan,-6.235112,106.82885,13,2023-04-15 11:54:00,B03094P,Rest Area Cibubur,-6.339993,106.89078,17.0,4/15/2023 12:23,20000.0
AASU727O2F95RB,376231000000000.0,emoney,"Vero Yolanda, M.Kom.",M,1995,2E,,1,B06666P,Kodim 0505 1,-6.211958,106.94722,24,2023-04-15 08:24:00,B03091P,Raya Pulo Gebang Akses St. Cakung,-6.216671,106.95301,25.0,4/15/2023 9:59,0.0
EUBG677P9D93SJ,4322010000000.0,online,"Eman Pangestu, S.Farm",F,2002,12C,Rusun Waduk Pluit - Penjaringan,0,B06292P,Gg. Elektro,-6.114359,106.80286,1,2023-04-15 07:07:00,B05675P,Tanah Pasir Gedong Panjang,-6.129596,106.80506,7.0,4/15/2023 8:31,0.0
DWTL715K0M63LK,4.11896e+18,brizzi,Drs. Prabawa Nainggolan,F,2006,S22,Ciputat - Kampung Rambutan,0,B05820P,UMJ 1,-6.296065,106.76544,10,2023-04-15 20:48:00,B01558P,Jln. Sandratex 1,-6.293846,106.76507,11.0,4/15/2023 22:00,3500.0
YMCQ209X2X53YU,30577000000000.0,bni,"Ir. Kartika Sihotang, M.Farm",F,1988,JAK.23,Senen - Pisangan Baru,0,B06776P,Sbr. SDN Gunung Sahari 01,-6.166091,106.841843,4,2023-04-15 05:39:00,,,,,,,0.0
JCLG725W3X94TN,2602750000000000.0,dki,"R. Paramita Tamba, S.Sos",F,1994,JAK.99,Term. Pulo Gadung - Lampiri,0,B00198P,Budhaya Santo Agustinus,-6.220866,106.92346,20,2023-04-15 08:01:00,B06715P,Masjid An Nur Khadijah,-6.236256,106.922619,25.0,4/15/2023 9:19,0.0
HZVR066I3L32QX,5129680000000000.0,dki,Cakrabuana Pratiwi,F,1986,JAK.22,Dwikora - Penas Kalimalang,0,B01557P,Jln. Sambu Halim,-6.247047,106.89053,3,2023-04-15 07:52:00,B02141P,Lion Center,-6.240451,106.87898,13.0,4/15/2023 9:39,0.0
CHIC469O7I89SI,5356160000000000.0,dki,Mahfud Lailasari,M,1998,S11,BSD - Jelambar,1,B00118P,Batalyon Kavaleri 2,-6.252704,106.65081,13,2023-04-15 06:25:00,B02136P,Les Belles Maisons 2,-6.262386,106.65391,16.0,4/15/2023 7:18,3500.0
YBXC273B3X46AV,213191000000000.0,emoney,Restu Hidayat,M,1990,4F,Pinang Ranti - Pulo Gadung,1,B03985P,Sbr. Koramil Pondok Gede,-6.282825,106.91394,37,2023-04-15 15:44:00,B05718P,Term. Pinang Ranti,-6.291029,106.88599,48.0,4/15/2023 17:31,3500.0
IXGH801T1E89QU,213145000000000.0,emoney,Hani Puspita,F,1995,2A,Pulo Gadung - Rawa Buaya via Balai Kota,1,P00014,Bermis,-6.178203,106.89859,23,2023-04-15 14:55:00,P00192,Pulo Gadung 1,-6.183239,106.90907,24.0,4/15/2023 16:13,3500.0
GVYB646U7X80DX,6011400000000000.0,dki,Michelle Tamba,F,1987,JAK.27,Pulo Gebang - Rorotan,0,B02789P,Perum Mutiara Indah Rorotan,-6.156135,106.96231,42,2023-04-15 10:52:00,B04942P,Simpang KH Abdulloh Karang Tengah 1,-6.147051,106.97188,47.0,4/15/2023 11:46,0.0
TVJO110H1L70VV,4843670000000.0,online,Lili Hutasoit,M,1993,6U,Blok M - Pasar Minggu,0,B00719P,Gunawarman 2,-6.234276,106.80756,2,2023-04-15 05:21:00,B05099P,Simpang Rawa Barat,-6.238408,106.81489,7.0,4/15/2023 6:16,3500.0
EUQL656E1I23NT,343063000000000.0,emoney,"Rahayu Utama, S.Psi",F,1988,JAK.49,Lebak Bulus - Cipulir,1,B03453P,Sbr. Bakti Mulya 400,-6.275921,106.77663,7,2023-04-15 16:03:00,B03561P,Sbr. Gg. Rw Ulujami Raya,-6.24941,106.76355,44.0,4/15/2023 17:01,0.0
CADG313P0P22PW,3597250000000000.0,dki,"Alika Simbolon, S.Kom",M,2007,S31,Bintaro - Fatmawati,0,B00148P,Bintaro Xchange,-6.286813,106.72865,0,2023-04-15 15:02:00,B05488P,St. MRT Fatmawati,-6.292589,106.7936,2.0,4/15/2023 15:19,20000.0
DLBD519N9K68KR,213182000000000.0,emoney,Lintang Permata,F,1967,JAK.84,Terminal Kampung Melayu - Kapin Raya,1,B02402P,Megatama,-6.2473,106.91049,1,2023-04-15 11:42:00,B02190P,Mall Cipinang Indah 2,-6.240012,106.89432,29.0,4/15/2023 13:20,0.0
RAVB721F3P09GD,180015000000000.0,emoney,Dalimin Najmudin,M,1989,4C,TU Gas - Bundaran Senayan,1,P00051,Dukuh Atas,-6.205702,106.82223,5,2023-04-15 14:24:00,P00265,UNJ,-6.192931,106.88033,20.0,4/15/2023 15:14,3500.0
DLWU654Z4E75CC,4.17785e+18,brizzi,Eja Saputra,M,1989,JAK.99,Term. Pulo Gadung - Lampiri,0,B01277P,Jln. Kesadaran Pool Bus 1,-6.182475,106.91309,2,2023-04-15 11:28:00,B06184P,Gg. H Sayuti I,-6.212751,106.92367,17.0,4/15/2023 11:57,0.0
NLTC333W6L84GF,4789540000000000.0,dki,Embuh Suryono,F,2010,6C,Stasiun Tebet - Karet via Patra Kuningan,0,,Pal Batu 2,-6.224559,106.8446,3,2023-04-15 06:41:00,B04016P,Sbr. Manhattan Hotel,-6.225591,106.83013,15.0,4/15/2023 7:55,3500.0
MZCQ451Y9Z47RG,3599440000000000.0,dki,"Puti Nova Maryadi, M.TI.",M,2008,M8,Lebak Bulus - Pasar Baru,1,P00161,Pecenongan,-6.16771,106.82819,23,2023-04-15 15:10:00,P00147,Pasar Baru,-6.166129,106.83483,24.0,4/15/2023 15:40,3500.0
BLDU162N6T59WW,4162510000000000.0,dki,Artanto Simanjuntak,F,1967,10,Tanjung Priok - PGC 2,1,P00241,Sunter Kelapa Gading Arah Utara,-6.1429,106.89076,16,2023-04-15 17:50:00,P00272,Walikota Jakarta Utara Arah Utara,-6.118842,106.89314,18.0,4/15/2023 19:40,3500.0
KNLC728Q7L12GN,180002000000000.0,emoney,"T. Parman Kuswandari, M.Ak",M,1997,10,Tanjung Priok - PGC 2,0,P00033,Cawang UKI,-6.250309,106.8736,19,2023-04-15 11:58:00,P00178,PGC 2,-6.2619,106.8657,21.0,4/15/2023 13:45,3500.0
NCQY502A0K48NY,180005000000000.0,emoney,"Hana Yulianti, S.Ked",F,1992,6H,Senen - Lebak Bulus,0,P00103,Karet Kuningan,-6.21667,106.830737,28,2023-04-15 17:47:00,P00073,GOR Sumantri,-6.221618,106.832245,29.0,4/15/2023 18:46,3500.0
LTIO274B8Z44QJ,4719260000000.0,online,Najwa Hidayat,F,1994,3,,0,P00243,Taman Kota,-6.157176,106.75789,7,2023-04-15 08:20:00,P00081,Indosiar,-6.163376,106.77514,8.0,4/15/2023 8:52,3500.0
QJZS569D8X10AR,4.86035e+18,brizzi,Lala Utami,F,1985,4,Pulo Gadung 2 - Tosari,1,P00167,Pemuda Rawamangun,-6.193488,106.89165,11,2023-04-15 18:47:00,P00158,Pasar Pulo Gadung,-6.187434,106.90591,14.0,4/15/2023 19:56,3500.0
TGSY721Y3E09YK,639041000000.0,flazz,"Vera Usada, M.TI.",M,1985,1M,Meruya - Blok M,1,B01617P,Jln. Swadarma Utara,-6.229106,106.76056,18,2023-04-15 08:29:00,B05411P,SPBU Meruya Ilir,-6.19749,106.75352,34.0,4/15/2023 9:35,3500.0
YZXV684H7H11PU,2279130000000000.0,dki,Drs. Ajeng Mandala,F,1984,3F,Kalideres - Gelora Bung Karno,0,P00243,Taman Kota,-6.157176,106.75789,9,2023-04-15 21:09:00,P00237,Sumur Bor,-6.153046,106.71929,14.0,4/15/2023 22:05,3500.0
QCBR540J2I88UG,574151000000.0,flazz,KH. Drajat Widiastuti,F,2005,JAK.72,Kampung Rambutan - Pasar Rebo via Poncol,1,B04181P,Sbr. Pemadam Ciracas,-6.328416,106.87919,16,2023-04-15 18:36:00,B04108P,Sbr. MTsN 7 Model Jakarta,-6.321445,106.88334,21.0,4/15/2023 20:04,0.0
BSNN549K9D33DV,180099000000000.0,emoney,"drg. Mustofa Sitompul, S.IP",F,1958,11M,,1,P00169,Penggilingan,-6.214132,106.93961,12,2023-04-15 13:38:00,B03291P,Rusun Rawa Bebek,-6.196241,106.9658,14.0,4/15/2023 13:59,0.0
GDYX882E7W08KC,4926220000000000.0,dki,"dr. Asman Saptono, S.H.",F,2012,7F,,1,P00105,Kayu Putih Rawasari,-6.187453,106.87542,9,2023-04-15 19:29:00,P00247,Tanah Merdeka Arah Timur,-6.307866,106.87389,15.0,4/15/2023 20:55,3500.0
TELN104I7K78TD,180016000000000.0,emoney,Nova Setiawan,F,2012,JAK.120,JIS - Terminal Muara Angke,1,B05448P,St. Jakarta Kota Baru,-6.137749,106.81631,18,2023-04-15 19:00:00,B06568P,Jln. Gatep,-6.14025,106.82307,22.0,4/15/2023 20:14,0.0
VXKR069L3J61WY,630422000000.0,flazz,R. Zahra Firmansyah,M,2011,JAK.30,Grogol - Meruya via Roxy,1,B03895P,Sbr. Kb. Jeruk Plaza,-6.190588,106.76027,32,2023-04-15 08:54:00,B04102P,Sbr. MNC Studios,-6.190241,106.7665,36.0,4/15/2023 10:33,0.0
XCLT413T5Y38PW,213164000000000.0,emoney,Gabriella Kusmawati,M,1952,M5,Matraman Baru - Ancol,0,P00118,Kramat Sentiong,-6.18798,106.84595,8,2023-04-15 07:57:00,P00003,Ancol,-6.127563,106.83039,15.0,4/15/2023 9:32,3500.0
SQUI608M8I82BA,4079310000000.0,online,Ira Marbun,F,1987,12P,St. LRT Pegangsaan Dua - JIS,0,P00240,Sunter Karya,-6.137625,106.87081,11,2023-04-15 14:12:00,B06075P,SDN Sunter Agung 09,-6.127638,106.85898,16.0,4/15/2023 15:06,3500.0
RLQZ600Z8J68EK,3557250000000000.0,dki,Zamira Prayoga,M,1990,JAK.110A,Rusun Marunda - Terminal Terpadu Pulo Gebang,0,B03827P,Sbr. Jln. Rorotan V Gg. 1,-6.136168,106.95481,25,2023-04-15 16:28:00,B00415P,Gg. Barokah Lingkar Timur,-6.19658,106.94405,56.0,4/15/2023 16:58,0.0
UAVB053F4I75SB,3548660000000000.0,dki,"Indra Budiyanto, M.Kom.",F,1999,12P,St. LRT Pegangsaan Dua - JIS,0,B06080P,Jln. Sunter Permai 2,-6.131551,106.86248,14,2023-04-15 11:36:00,P00095,JIS,-6.126689,106.85587,17.0,4/15/2023 13:13,3500.0
XDVE374E7F26GS,3528650000000000.0,dki,"Oliva Thamrin, S.I.Kom",M,1988,9,Pinang Ranti - Pluit,0,P00090,Jembatan Dua,-6.143279,106.79352,22,2023-04-15 09:37:00,P00170,Penjaringan,-6.126306,106.79203,24.0,4/15/2023 10:21,3500.0
PNUF673H6Y31QD,180069000000000.0,emoney,"Maimunah Yuliarti, S.E.",M,1977,1E,Pondok Labu - Blok M,1,B03597P,Sbr. Golden Fatmawati,-6.27688,106.79783,10,2023-04-15 21:06:00,B02538P,One Belpark 1,-6.304695,106.79445,18.0,4/15/2023 23:05,3500.0
VJOB016I7Y01AN,3516720000000000.0,dki,Farhunnisa Tarihoran,M,1997,JAK.72,Kampung Rambutan - Pasar Rebo via Poncol,0,B01186P,Jln. Kaja Raya Ciracas,-6.328241,106.88214,12,2023-04-15 16:48:00,B04705P,Simpang Anyelir,-6.308233,106.86383,42.0,4/15/2023 17:07,0.0
LVNV340E5I26RS,4908480000000000.0,dki,Kartika Haryanti,M,1995,JAK.72,Kampung Rambutan - Pasar Rebo via Poncol,1,B03665P,Sbr. Jln. Bungur VIII Rambutan,-6.316067,106.88491,25,2023-04-15 21:55:00,B00961P,Jln. Bungur Akses Term. 2,-6.311895,106.8849,28.0,4/15/2023 22:56,0.0
PNZQ347V1B48HK,2720010000000000.0,dki,"Maida Puspasari, S.E.I",F,2005,S21,,1,B03033P,Pusdiklat Kemenag 2,-6.312209,106.75252,25,2023-04-15 20:41:00,,Ps. Ciputat,-6.315627,106.74688,26.0,4/15/2023 21:29,3500.0
SRKN156M5O74EE,180032000000000.0,emoney,"Rika Suwarno, M.Pd",M,1974,1T,Cibubur - Balai Kota,1,B02013P,Komdak 2,-6.221715,106.81426,13,2023-04-15 15:13:00,B00248P,Cibubur Junction,-6.368735,106.89366,15.0,4/15/2023 16:28,20000.0
IFWG728A5X02GE,3523930000000000.0,dki,drg. Raina Hardiansyah,M,1971,JAK.29,Tanjung Priok - Sukapura,0,B01585P,Jln. Sindang Terusan,-6.111462,106.89934,39,2023-04-15 06:17:00,B03213P,RSUD Koja 2,-6.108796,106.89934,41.0,4/15/2023 7:21,0.0
UZCM302H8U52WM,571447000000.0,flazz,Elvina Utama,M,1971,JAK.08,Roxy - Benhil,1,B00825P,Jak Lingko Tanah Abang 2,-6.183885,106.81165,23,2023-04-15 21:00:00,B05505P,St. Tanah Abang 3,-6.183388,106.8122,24.0,4/15/2023 22:55,0.0
EEKT708O3N39NJ,676286000000.0,flazz,"R.A. Raina Natsir, M.M.",F,1974,1P,Senen - Blok M,0,B03312P,Sari Pan Pacific,-6.185037,106.82325,16,2023-04-15 07:53:00,,,,,,,3500.0
OSFB794L4F93JZ,5554500000000000.0,dki,T. Jinawi Kusumo,F,1997,JAK.33,Pulo Gadung - Kota,0,B02564P,Pangeran Jayakarta 1,-6.137775,106.81766,63,2023-04-15 07:30:00,B01675P,Jln. Telepon Kota,-6.137233,106.81165,65.0,4/15/2023 7:54,0.0
LHHB364G8I00DD,4.12239e+18,brizzi,Puti Sabrina Ardianto,M,1965,,Terminal Rawamangun - Cipinang Muara,0,B04559P,Sbr. TK Tarakanita 5,-6.202364,106.88301,14,2023-04-15 08:19:00,B03223P,Rukan Balai Pustaka,-6.198484,106.88611,17.0,4/15/2023 9:17,0.0
BIOJ094U0H14EQ,6011200000000000.0,dki,"Sutan Darmana Zulkarnain, S.E.",M,1975,6A,Ragunan - MH Thamrin via Kuningan,1,P00053,Duren Tiga,-6.252377,106.82697,10,2023-04-15 17:23:00,P00164,Pejaten,-6.278404,106.82972,14.0,4/15/2023 17:41,3500.0
RTBX027S2X71EV,4.94999e+18,brizzi,Zalindra Santoso,F,1997,JAK.50,Kalideres - Puri Kembangan,0,B00935P,Jln. Bima Bojong Raya,-6.168827,106.73414,46,2023-04-15 11:56:00,B03828P,Sbr. Jln. Ruby Kembangan Utara,-6.179903,106.73422,52.0,4/15/2023 13:21,0.0
AMVZ153C9S97QT,4475600000000000.0,dki,Diah Rajasa,M,1982,JAK.23,Senen - Pisangan Baru,0,B00406P,Gg. Arba Johar Baru,-6.185385,106.85234,17,2023-04-15 19:47:00,B04149P,Sbr. Ps. Johar Baru,-6.184282,106.85584,21.0,4/15/2023 20:41,0.0
IWKY059M4U70RP,3521860000000000.0,dki,Jefri Hidayat,F,1994,JAK.06,,1,B01203P,Jln. Kapuk Bambu Apus,-6.30636,106.91366,25,2023-04-15 18:59:00,B03568P,Sbr. Gg. Swadaya Pagelarang,-6.302718,106.91662,31.0,4/15/2023 20:46,0.0
PZLT180W0F97BM,2700250000000000.0,dki,Kariman Sinaga,M,1974,12C,Rusun Waduk Pluit - Penjaringan,0,B06658P,Kel. Penjaringan,-6.125396,106.80071,10,2023-04-15 16:45:00,B03166P,RS Pluit,-6.125386,106.79987,11.0,4/15/2023 18:15,0.0
LUZT845L0J35YX,3569650000000000.0,dki,"dr. Faizah Firmansyah, S.T.",F,2005,6U,,0,B05265P,SMAN 28,-6.286109,106.83318,23,2023-04-15 08:15:00,B06031P,SMU Balai Rakyat,-6.285105,106.83694,26.0,4/15/2023 9:14,3500.0
LWGF368D8W11XF,6511780000000000.0,dki,"Gamani Prasetya, M.Ak",M,2008,JAK.20,Cawang UKI - Lubang Buaya,0,B03046P,Puskesmas Halim 1,-6.288345,106.89237,33,2023-04-15 05:01:00,B05751P,TK Angkasa 8,-6.285191,106.90125,39.0,4/15/2023 6:13,0.0
DEDL368A7B71BE,4340000000000000.0,dki,"Halima Suryono, S.T.",M,1979,JAK.14,Tanah Abang - Meruya,1,B01823P,Kantor Pos Kb. Jeruk,-6.197923,106.76353,17,2023-04-15 17:55:00,B04166P,Sbr. Ps. Palmerah,-6.20749,106.79606,39.0,4/15/2023 18:46,0.0
ONJG216Z5J99IM,501843000000.0,flazz,"Laras Uyainah, S.E.",F,2003,7P,Pondok Kelapa - BKN,1,B02189P,Mall Cipinang Indah 1,-6.239676,106.89405,8,2023-04-15 14:10:00,B02905P,Polsek Duren Sawit,-6.247836,106.91726,16.0,4/15/2023 15:15,3500.0
YQOJ273A4R86YF,4321750000000000.0,dki,Putri Marpaung,M,1995,5N,Kampung Melayu - Ragunan,0,B03072P,Ragunan 2,-6.305283,106.81855,51,2023-04-15 21:36:00,B05721P,Term. Ragunan,-6.305594,106.8202,52.0,4/15/2023 22:48,3500.0
SSRF088P7S41IF,4141090000000000.0,dki,Vanesa Waluyo,M,1993,JAK.23,Senen - Pisangan Baru,0,B06421P,SATLAK Johar Baru,-6.186499,106.861084,24,2023-04-15 17:40:00,B06434P,Jln. Pisangan Baru Tengah 1,-6.21118,106.872812,40.0,4/15/2023 18:36,0.0
CNEU698B8J03CM,4.69019e+18,brizzi,"Zulfa Purnawati, S.Pd",M,1983,S21,Ciputat - CSW,1,B01094P,Jln. H. Ahmad,-6.262573,106.78857,11,2023-04-15 13:36:00,B02053P,Komplek Mandiri Giant Express 2,-6.297573,106.76499,18.0,4/15/2023 14:58,3500.0
TKTN699Z2X62KM,4535370000000000.0,dki,Ganjaran Saptono,F,2000,JAK.22,Dwikora - Penas Kalimalang,0,B00732P,Halim PK,-6.241981,106.87792,14,2023-04-15 20:01:00,B00234P,Cawang Soetoyo 1,-6.24544,106.87548,16.0,4/15/2023 21:45,0.0
JLHQ146F9K07YW,4774290000000.0,online,Muhammad Permadi,F,1986,S22,Ciputat - Kampung Rambutan,1,B05233P,Situ Gintung 2,-6.301629,106.76139,15,2023-04-15 05:47:00,B02068P,Komplek Uin,-6.308924,106.75601,18.0,4/15/2023 6:45,3500.0
AZVP378O9C12TZ,6011040000000000.0,dki,Carub Saragih,F,1988,6U,Blok M - Pasar Minggu,0,B06289P,Pejaten 2,-6.278368,106.82994,20,2023-04-15 21:11:00,B06030P,Kel. Jati Padang,-6.285899,106.83476,24.0,4/15/2023 21:37,3500.0
IECA805R5K27IW,639019000000.0,flazz,Jaeman Kusumo,F,1990,6N,Ragunan - Blok M via Kemang,1,B00035P,Ampera 1,-6.292069,106.81774,20,2023-04-15 07:29:00,P00199,Ragunan,-6.305769,106.81949,23.0,4/15/2023 9:29,3500.0
XMUI883K0Y66ZP,4.26003e+18,brizzi,Atma Saefullah,F,1967,,,0,P00270,Walikota Jakarta Timur,-6.21254,106.94537,1,2023-04-15 08:31:00,P00086,Jatinegara RS Premier,-6.221412,106.86807,14.0,4/15/2023 9:23,3500.0
TSRC191M3Z87DU,4.42238e+18,brizzi,Suci Utami,M,1978,6,Ragunan - Dukuh Atas 2,0,P00048,Departemen Pertanian,-6.294641,106.82213,1,2023-04-15 18:13:00,P00120,Kuningan Madya,-6.21341,106.8305,15.0,4/15/2023 19:25,3500.0
BUIY668Y6T64BK,379045000000000.0,emoney,Panji Simanjuntak,M,1978,JAK.42,Kampung Melayu - Pondok Kelapa,0,B01738P,Jembatan BKT Pendidikan Raya 1,-6.229216,106.91736,34,2023-04-15 09:56:00,B04594P,Sbr. Yayasan Asih Budi,-6.22992,106.92008,35.0,4/15/2023 11:31,0.0
EAOK592Q1T31TR,4520540000000.0,online,Omar Kusumo,M,1971,8K,Batusari - Grogol,1,B05276P,SMAN 65,-6.200842,106.76904,25,2023-04-15 17:11:00,B02116P,Lapangan Bola Meruya Ilir,-6.197423,106.76661,27.0,4/15/2023 19:02,3500.0
LEDV607U4O62ZG,3571140000000000.0,dki,"dr. Zelaya Hutasoit, S.Sos",M,2012,JAK.30,Grogol - Meruya via Roxy,1,B01209P,Jln. Kartika Meruya Selatan,-6.203099,106.73673,14,2023-04-15 16:41:00,B03398P,SDN Meruya Utara 02 Pagi,-6.199267,106.74166,18.0,4/15/2023 18:01,0.0
SVHU586C3V48NW,4025660000000000.0,dki,Tirta Maheswara,F,2003,JAK.51,Taman Kota - Budi Luhur,0,B05779P,TPU Basmol,-6.160331,106.75275,48,2023-04-15 14:06:00,B02798P,Perum Taman Kota 2,-6.160549,106.75615,49.0,4/15/2023 15:13,0.0
YHSI039G5J36MV,4531340000000.0,online,Ilsa Jailani,F,1998,M2,Pulo Gadung - Monas,0,P00038,Cempaka Timur,-6.166584,106.87591,5,2023-04-15 18:14:00,P00202,Rawa Selatan,-6.173925,106.85809,9.0,4/15/2023 19:57,3500.0
WLEQ940O0K44YK,3505800000000000.0,dki,Dr. Cemeti Halim,M,1994,JAK.24,Senen - Pulo Gadung via Kelapa Gading,0,B01898P,Kelapa Cengkir Barat XI,-6.163816,106.9068,18,2023-04-15 09:41:00,B00166P,Boulevard Bukit Gading Raya,-6.15515,106.89579,27.0,4/15/2023 10:04,0.0
JTME620V6R42KQ,342357000000000.0,emoney,Cakrawangsa Nashiruddin,M,1974,JAK.15,Bulak Turi - Tanjung Priok,0,B04939P,Simpang Kesemek 1,-6.113408,106.92089,31,2023-04-15 08:34:00,B01290P,Jln. Komplek Cakrawala,-6.11245,106.91587,35.0,4/15/2023 10:07,0.0
VZDO819H1F22XB,4130280000000000.0,dki,Kenari Hidayanto,M,2011,4D,Pulo Gadung 2 - Kuningan,1,P00127,Layur,-6.193539,106.89909,18,2023-04-15 10:33:00,,,,,,,3500.0
ERMX498V7L39SI,6011670000000000.0,dki,"Ir. Hardana Waskita, M.Kom.",F,1984,10K,Tanjung Priok - Senen via Taman BMW,1,B00318P,Dittopad 2,-6.174618,106.85009,8,2023-04-15 09:17:00,B04521P,Sbr. Taman BMW,-6.12629,106.85763,28.0,4/15/2023 10:33,3500.0
TPVB067B4A65ZH,503829000000.0,flazz,R.M. Gading Hutasoit,F,1981,13C,Puri Beta - Dukuh Atas,0,P00106,Kebayoran Lama,-6.23834,106.77752,7,2023-04-15 05:32:00,P00259,Tirtayasa,-6.239207,106.80777,10.0,4/15/2023 6:31,3500.0
FZXA248A0N00GO,4.05531e+18,brizzi,Alambana Hakim,F,1983,JAK.35,,0,B01593P,Jln. Sodong Raya Persahabatan,-6.202647,106.89628,29,2023-04-15 19:51:00,B03590P,Sbr. Gereja Kristen Jawa,-6.2014,106.88588,32.0,4/15/2023 21:01,0.0
ABDU963V2K09DX,4838010000000000.0,dki,Bakianto Gunarto,M,1974,JAK.30,Grogol - Meruya via Roxy,1,B00330P,Duri Kepa 1,-6.185474,106.76836,39,2023-04-15 09:14:00,B03692P,Sbr. Jln. Duri Tol,-6.185032,106.76979,41.0,4/15/2023 10:37,0.0
LFAC226E6X93ZR,4.91155e+18,brizzi,Kanda Padmasari,F,1967,10A,Rusun Marunda - Tanjung Priok,0,B03282P,Rusun Marunda,-6.097099,106.96231,0,2023-04-15 14:43:00,B06039P,STIP 2,-6.104694,106.95903,3.0,4/15/2023 16:42,0.0
UBNP091Y6N79WP,6011540000000000.0,dki,Among Puspita,F,1992,JAK.18,Kalibata - Kuningan,1,B05247P,SMA Islam As Syafiiyah 01,-6.220766,106.85339,18,2023-04-15 20:26:00,B02689P,Ps. Tebet Barat,-6.239925,106.84775,35.0,4/15/2023 22:07,0.0
SZTU850S2A79QS,6504250000000000.0,dki,Maida Iswahyudi,M,1990,10H,Tanjung Priok - Blok M,1,P00176,Petojo,-6.169984,106.81698,10,2023-04-15 19:46:00,P00097,Juanda,-6.168048,106.83089,12.0,4/15/2023 21:29,3500.0
TETX515I0V20DB,4.74169e+18,brizzi,Okto Kusumo,F,2011,T11,,1,B02057P,Komplek Pemda 2,-6.212336,106.61938,13,2023-04-15 15:00:00,B02288P,Masjid Baiturrahman 2,-6.209473,106.61918,14.0,4/15/2023 16:56,3500.0
KMYM456O9A21EO,3543300000000000.0,dki,Prayoga Jailani,F,2010,6C,Stasiun Tebet - Karet via Patra Kuningan,0,P00160,Patra Kuningan,-6.232677,106.832087,9,2023-04-15 05:02:00,B02412P,Menara Karya,-6.232869,106.83167,11.0,4/15/2023 5:48,3500.0
IFVF570X2L71BH,2287570000000000.0,dki,"Drs. Rika Prasetya, S.E.I",F,1993,JAK.22,Dwikora - Penas Kalimalang,0,B02302P,Masjid Hidayatussalam,-6.245632,106.88115,10,2023-04-15 13:09:00,B00732P,Halim PK,-6.241981,106.87792,14.0,4/15/2023 15:06,0.0
BLKS423P2C60AC,4.71523e+18,brizzi,Joko Marbun,F,2005,10K,,1,B02244P,Masjid Al Huda Kemayoran,-6.163822,106.85274,16,2023-04-15 08:35:00,B05390P,SMPN 79,-6.15727,106.85677,19.0,4/15/2023 9:31,3500.0
LHTA681Z6R65OV,180057000000000.0,emoney,Ridwan Wulandari,F,2002,JAK.77,,0,B06888P,Sbr. Jln. Warakas I Gg. 8,-6.117617,106.87667,37,2023-04-15 19:08:00,B03876P,Sbr. Jln. Warakas I Gg. 2,-6.116037,106.87902,40.0,4/15/2023 19:35,0.0
FNRJ034G1N74YU,501860000000.0,flazz,"Juli Pudjiastuti, M.M.",M,1975,D32,Cinere - Bundaran Senayan,1,B00221P,Bundaran Senayan 1,-6.227445,106.80187,0,2023-04-15 11:26:00,B06644P,Gerbang Tol Brigif,-6.343523,106.79725,1.0,4/15/2023 11:43,20000.0
EHWJ035V9V49PN,6562310000000000.0,dki,"Drs. Jinawi Marpaung, S.Psi",M,1981,10K,Tanjung Priok - Senen via Taman BMW,0,B01601P,Jln. Sukamulya III Harapan Mulya,-6.170439,106.8524,26,2023-04-15 18:32:00,B03201P,RSPAD 3,-6.175462,106.83922,36.0,4/15/2023 19:34,3500.0
YTPN993V6Q54XJ,30328100000000.0,bni,Diah Rahayu,F,2012,1E,Pondok Labu - Blok M,1,B06578P,Blok M Jalur 3,-6.243426,106.80188,0,2023-04-15 12:38:00,B05635P,Taman Panglima Polim,-6.251369,106.79751,2.0,4/15/2023 14:11,3500.0
XAHQ375J4Y14ID,60462617576.0,flazz,Edward Dabukke,M,1988,6Q,Dukuh Atas - Casablanca via Epicentrum Raya,0,B05644P,Taman Rasuna Tower 17,-6.217105,106.83598,8,2023-04-15 18:57:00,,Taman Rasuna Tower 10,-6.218581,106.83599,9.0,4/15/2023 19:45,3500.0
ARBL396T4X31XM,30046900000000.0,bni,Fathonah Narpati,M,2008,1E,Pondok Labu - Blok M,1,B05635P,Taman Panglima Polim,-6.251369,106.79751,2,2023-04-15 08:51:00,B00730P,H. Nawi Jln. Timbul,-6.268439,106.79744,8.0,4/15/2023 9:17,3500.0
DAMV343E8M52XJ,6542190000000000.0,dki,Sutan Cager Waskita,M,1979,JAK.112,Terminal Tanah Merah - Pulo Gadung,1,B03006P,Pulo Mas Ruko,-6.178306,106.89677,6,2023-04-15 07:15:00,B03901P,Sbr. Kec. Kelapa Gading,-6.16233,106.90768,21.0,4/15/2023 7:34,0.0
LKSL811R2D54CZ,60491704833.0,flazz,"Cut Titi Hidayanto, S.IP",F,2006,S22,Ciputat - Kampung Rambutan,1,B05361P,SMPN 188,-6.307289,106.87793,1,2023-04-15 06:51:00,B00875P,Jln. Asmin 2,-6.308725,106.87205,4.0,4/15/2023 8:28,3500.0
EWBR384I7C22MF,4348540000000.0,online,Carla Wacana,F,1983,JAK.71,Kampung Rambutan - Pinang Ranti,1,B01912P,Kel. Dukuh,-6.292349,106.877,6,2023-04-15 16:07:00,B01583P,Jln. Siman Noar,-6.300103,106.88072,10.0,4/15/2023 17:32,0.0
ZUQP499J7D06EX,4.0419e+18,brizzi,Umay Sitompul,F,1988,6M,Stasiun Manggarai - Blok M,1,,Departemen Kesehatan,-6.228794,106.833205,10,2023-04-15 06:09:00,P00077,Halimun,-6.205137,106.83338,16.0,4/15/2023 7:53,3500.0
QTOD743F7J44KF,4.95785e+18,brizzi,Dr. Kamaria Pradipta,F,1981,JAK.112,Terminal Tanah Merah - Pulo Gadung,1,B00707P,Grii Kelapa Gading,-6.145063,106.90953,29,2023-04-15 14:23:00,B04530P,Sbr. Taman Mandiri Kelapa Gading,-6.142758,106.90991,30.0,4/15/2023 15:49,0.0
QJSY374Y6B43FZ,4431270000000.0,online,Balijan Damanik,M,1978,JAK.18,Kalibata - Kuningan,1,B00025P,Al Barkah,-6.219597,106.84565,11,2023-04-15 11:15:00,B05189P,Simpang Tebet Raya Timur,-6.22987,106.85278,27.0,4/15/2023 11:48,0.0
EIEP348R4Q65QN,4342260000000000.0,dki,Taswir Ardianto,F,2011,12F,Rusun Marunda - Rusun Waduk Pluit,1,B02170P,Madya Kebantenan,-6.114347,106.9265,8,2023-04-15 12:59:00,B00137P,Bidara 2,-6.106075,106.95942,9.0,4/15/2023 14:31,0.0
XXAS167K0C42PQ,4088020000000000.0,dki,Vicky Setiawan,F,1990,7F,Kampung Rambutan - Juanda via Pasar Baru,0,P00037,Cempaka Tengah,-6.170398,106.86659,12,2023-04-15 18:56:00,P00137,Monas,-6.176248,106.82286,19.0,4/15/2023 20:19,3500.0
CGIJ648U9P22OY,2237490000000000.0,dki,Latika Kusmawati,M,1995,JAK.51,Taman Kota - Budi Luhur,0,B04502P,Sbr. SPBU Meruya Ilir,-6.197275,106.75357,33,2023-04-15 09:42:00,B05414P,SPBU Puri Kembangan,-6.179421,106.74876,40.0,4/15/2023 10:53,0.0
OELI000B8K36PQ,563485000000.0,flazz,Eko Thamrin,F,1981,,,1,B01462P,Jln. Pekan Raya,-6.151154,106.84215,31,2023-04-15 07:47:00,B06080P,Jln. Sunter Permai 2,-6.131551,106.86248,38.0,4/15/2023 8:37,0.0
KSYJ675H6C52MR,5146660000000000.0,dki,Titi Yulianti,F,1993,7B,Kampung Rambutan - Blok M,1,B01825P,Kantor Pos Mampang,-6.240216,106.82259,10,2023-04-15 13:46:00,B05110P,Simpang Raya Bogor Cililitan,-6.264191,106.86585,33.0,4/15/2023 15:16,3500.0
KSGI027I5W14GA,584221000000.0,flazz,"Muni Wibisono, M.TI.",F,2009,13,Ciledug - Tendean,1,P00001,Adam Malik,-6.236466,106.74786,11,2023-04-15 15:40:00,P00034,CBD Ciledug,-6.223629,106.70904,13.0,4/15/2023 17:20,3500.0
DWSW663Q0W76ZO,3587110000000000.0,dki,Diah Adriansyah,M,2011,M7,Kampung Rambutan - Monas,0,P00251,Tegal Parang Arah Barat,-6.238863,106.83022,16,2023-04-15 18:03:00,P00025,Bundaran HI,-6.193021,106.823,24.0,4/15/2023 19:38,3500.0
GWME563G6B38OZ,4457590000000.0,online,Cici Wacana,M,1970,13D,Puri Beta - Ragunan,0,,SMK 57,-6.290967,106.82365,20,2023-04-15 09:20:00,P00199,Ragunan,-6.305769,106.81949,22.0,4/15/2023 11:03,3500.0
JVBR867Q2R08VA,3523380000000000.0,dki,Victoria Lazuardi,M,1984,8,Lebak Bulus - Pasar Baru via Tomang,1,P00185,Pondok Indah 2,-6.267231,106.78365,21,2023-04-15 08:30:00,P00128,Lebak Bulus,-6.289413,106.77415,23.0,4/15/2023 9:52,3500.0
FBST834S1E46BZ,180039000000000.0,emoney,"Sadina Putra, S.Pt",M,2002,JAK.30,Grogol - Meruya via Roxy,1,B05048P,Simpang Ps. Patra 2,-6.182981,106.77982,47,2023-04-15 20:59:00,B02221P,Markas,-6.177758,106.77997,49.0,4/15/2023 22:07,0.0
OCLQ208I2W39CJ,30191100000000.0,bni,Puspa Waskita,F,1990,12F,Rusun Marunda - Rusun Waduk Pluit,0,B01858P,Kebantenan,-6.114554,106.9264,5,2023-04-15 14:20:00,B06312P,Sbr. Gg. Elektro,-6.114391,106.80278,9.0,4/15/2023 15:45,0.0
PTFF275A4M32XG,4184480000000000.0,dki,T. Johan Mangunsong,F,2011,7Q,Blok M - PGC,0,B05517P,STEKPI,-6.255574,106.84966,25,2023-04-15 15:32:00,B05920P,Yayasan Mambaul Ula,-6.25935,106.8643,30.0,4/15/2023 15:59,3500.0
HZLC300I4E03QD,4830970000000.0,online,Ratna Farida,M,2007,11Q,Kampung Melayu - Pulo Gebang via BKT,0,P00169,Penggilingan,-6.214132,106.93961,2,2023-04-15 05:37:00,B00368P,Flyover Radin Inten 1,-6.216112,106.92439,5.0,4/15/2023 7:03,3500.0
CARF000Q2O59CY,3502760000000000.0,dki,Endra Zulaika,F,1990,JAK.39,Kalimalang - Duren Sawit,0,B02372P,Masjid Nururrohman Pondok Kopi,-6.218564,106.94447,16,2023-04-15 08:30:00,B01983P,Klapa Village H. Naman,-6.238446,106.94173,40.0,4/15/2023 8:56,0.0
VBJS471H5L21JH,2703730000000000.0,dki,Sidiq Prasasta,M,1998,JAK.84,Terminal Kampung Melayu - Kapin Raya,1,B05304P,SMK Swadaya Global School,-6.247161,106.91976,6,2023-04-15 09:19:00,B01828P,Kapin,-6.248853,106.93019,15.0,4/15/2023 9:43,0.0
BIYP453G6Y15QK,4215070000000000.0,dki,Aditya Marbun,F,1988,,,0,P00207,RS Islam,-6.168676,106.87027,6,2023-04-15 13:00:00,P00137,Monas,-6.176248,106.82286,14.0,4/15/2023 14:14,3500.0
YEGQ824A0C96WY,4968790000000.0,online,"KH. Dimaz Aryani, S.H.",F,2009,JAK.16,Cililitan - Condet,0,B04090P,Sbr. MI Al Ihsan Batu Ampar,-6.272435,106.86497,7,2023-04-15 14:29:00,B04715P,Simpang Batu Ampar Condet Raya,-6.284139,106.85555,19.0,4/15/2023 15:58,0.0
EHFW648L9V06CM,4213100000000000.0,dki,Leo Suryatmi,F,2001,JAK.110A,Rusun Marunda - Terminal Terpadu Pulo Gebang,0,B00558P,Gg. Sejahtera Lingkar Timur,-6.200604,106.94519,61,2023-04-15 18:55:00,B02033P,Komplek DPR Bumi Sanggraha,-6.206268,106.94826,63.0,4/15/2023 20:24,0.0
WLFB489V8E11EN,3566650000000000.0,dki,Kani Zulaika,F,2008,JAK.48A,Stasiun Tebet - Rusun Karet Tengsin,1,B03318P,Sawo Kecik Raya,-6.224852,106.85489,22,2023-04-15 18:39:00,B05511P,St. Tebet 2,-6.225525,106.85813,24.0,4/15/2023 19:29,
UOGY698J0O88QA,6536330000000000.0,dki,Warsita Prakasa,M,1979,12C,Rusun Waduk Pluit - Penjaringan,0,B02361P,Masjid Luar Batang,-6.126266,106.8044,4,2023-04-15 16:40:00,B05028P,Simpang Pakin 3,-6.129076,106.80514,5.0,4/15/2023 17:59,0.0
KDNL726H4G52SQ,4514010000000000.0,dki,Rizki Dabukke,M,1973,JAK.80,Rawa Buaya - Rawa Kompeni,0,B05090P,Simpang Prepedan Benda Raya,-6.106575,106.70192,25,2023-04-15 19:36:00,B01922P,Kel. Kamal,-6.104683,106.70625,28.0,4/15/2023 21:21,0.0
XQET176R6M72DR,4952750000000000.0,dki,Catur Najmudin,M,1993,B11,Summarecon Bekasi - BNN,1,B01853P,Kayuringin 2,-6.245948,106.99247,3,2023-04-15 17:51:00,P00236,Summarecon Bekasi,-6.225566,107.00281,6.0,4/15/2023 19:37,3500.0
OJFA873A2B91MG,4207670000000.0,online,Hani Tamba,F,1992,JAK.61,Cempaka Putih - Pulo Gadung via Kelapa Gading,1,B01030P,Jln. Danau Indah Timur,-6.150051,106.88153,33,2023-04-15 10:06:00,B01612P,Jln. Sunter Jaya VI,-6.160663,106.8727,40.0,4/15/2023 10:47,0.0
XNQW823P3I04PQ,6500700000000000.0,dki,Shania Mandasari,F,1985,S12,BSD Serpong - Fatmawati,1,B05488P,St. MRT Fatmawati,-6.292589,106.7936,0,2023-04-15 18:36:00,B03177P,RS Siloam,-6.292071,106.78467,1.0,4/15/2023 19:53,20000.0
XJNR504P9B62FE,38800300000000.0,bni,Ade Mulyani,M,1996,JAK.25,Kp. Rambutan - Kalisari,0,B00659P,GOR Ciracas,-6.325147,106.86413,13,2023-04-15 12:14:00,B03780P,Sbr. Jln. Manunggal Bakti Kalisari,-6.334943,106.85268,38.0,4/15/2023 12:44,0.0
ABJU076P3W30PX,4.28146e+18,brizzi,"T. Ganda Hasanah, S.Pt",F,1984,M12,Sunter Boulevard Barat - Penjaringan,1,P00069,Gedong Panjang,-6.132617,106.80596,3,2023-04-15 11:42:00,P00229,SMP 140,-6.139776,106.8592,12.0,4/15/2023 12:55,3500.0
EZRV467Q7W57BY,6567200000000000.0,dki,"H. Maman Mansur, S.Psi",M,1980,6M,Stasiun Manggarai - Blok M,0,P00065,Gatot Subroto Jamsostek Arah Barat,-6.233551,106.82208,10,2023-04-15 20:41:00,P00133,Masjid Agung,-6.236483,106.79845,13.0,4/15/2023 21:07,3500.0
HBOO211C0B45HE,3522280000000000.0,dki,Kamidin Hidayat,F,1988,JAK.30,Grogol - Meruya via Roxy,0,,RPTRA Taman Apel,-6.1717,106.78412,6,2023-04-15 13:28:00,B03018P,Puri Park View,-6.192136,106.75572,38.0,4/15/2023 14:07,0.0
ADKZ224P2N37SZ,30482400000000.0,bni,dr. Ulya Megantara,M,1990,,,1,B03050P,Puskesmas Kelapa Gading,-6.157489,106.90703,10,2023-04-15 08:02:00,B06614P,Sbr. Jln. Gading Griya Lestari,-6.14122,106.91433,19.0,4/15/2023 8:40,0.0
SZEE310Y1Y67DT,30504200000000.0,bni,Bagus Oktaviani,F,1987,M8,Lebak Bulus - Pasar Baru,1,P00155,Pasar Kebayoran Lama,-6.238413,106.78323,6,2023-04-15 16:52:00,P00187,Pos Pengumben,-6.212935,106.77226,10.0,4/15/2023 18:43,3500.0
XOML547W5V25VV,4461700000000000.0,dki,"Balamantri Manullang, S.E.",F,1993,8,Lebak Bulus - Pasar Baru via Tomang,0,P00187,Pos Pengumben,-6.212935,106.77226,10,2023-04-15 17:48:00,P00209,RS Tarakan,-6.171146,106.81011,21.0,4/15/2023 19:35,3500.0
PPZH147A2A80FF,3599950000000000.0,dki,Jaya Sitorus,M,1999,JAK.31,Blok M - Andara,0,B02025P,Komplek DDN 1,-6.303426,106.79914,45,2023-04-15 07:26:00,B00042P,Andara Margasatwa 1,-6.313471,106.80369,55.0,4/15/2023 9:15,0.0
YRQH283U3P35TM,4186700000000000.0,dki,"Bala Marbun, M.M.",M,1965,11K,Rusun Komarudin - Penggilingan,0,B03281P,Rusun Komarudin,-6.208781,106.94252,0,2023-04-15 10:24:00,P00270,Walikota Jakarta Timur,-6.21254,106.94537,1.0,4/15/2023 10:51,0.0
EWMV972T3M82VV,379039000000000.0,emoney,Puti Rini Hartati,F,1999,JAK.15,Bulak Turi - Tanjung Priok,1,B00208P,Bulak Turi 2,-6.105145,106.97009,43,2023-04-15 10:17:00,B03284P,Rusun Marunda 2,-6.09826,106.96218,51.0,4/15/2023 11:32,0.0
VSRY309U0H18FD,501803000000.0,flazz,dr. Asirwanda Prasetya,F,2002,JAK.06,,0,B03744P,Sbr. Jln. Kapuk Bambu Apus,-6.306466,106.91388,33,2023-04-15 18:21:00,B02770P,Pertigaan Ceger,-6.306265,106.88809,49.0,4/15/2023 18:41,0.0
FOJA611L7S81PG,4727470000000000.0,dki,Oni Marbun,F,1981,12,Tanjung Priok - Pluit,1,P00013,Kota,-6.13679,106.8149,5,2023-04-15 21:30:00,P00055,Enggano,-6.11015,106.89242,19.0,4/15/2023 22:10,3500.0
CBYN637N7E34IF,30105900000000.0,bni,"Tgk. Farah Wacana, S.T.",M,1979,JAK.41,Kampung Melayu - Pulo Gadung,0,B05759P,TK Tarakanita 5,-6.202111,106.88295,26,2023-04-15 16:56:00,B05776P,Total Buah Rawamangun,-6.196598,106.88975,34.0,4/15/2023 17:30,0.0
JWZQ121T8W08QJ,4673890000000000.0,dki,"R.M. Ian Mangunsong, S.Pd",M,1989,9N,Pinang Ranti - Pramuka,0,P00064,Garuda Taman Mini,-6.290154,106.88116,1,2023-04-15 16:19:00,P00016,BKN,-6.257751,106.87,2.0,4/15/2023 18:00,3500.0
UEUD841B5U00RO,213173000000000.0,emoney,drg. Mahesa Budiman,F,2005,JAK.28,Kp. Rambutan - Taman Wiladatika,1,B03148P,RS Jantung Binawaluya,-6.30841,106.87071,31,2023-04-15 21:39:00,B05708P,Term. Kampung Rambutan,-6.308964,106.88165,36.0,4/15/2023 22:06,0.0
PKDZ985W2P06JG,3589400000000000.0,dki,R.A. Eva Sihombing,M,1987,L13E,Puri Beta - Kuningan (Express),1,P00268,Velbak,-6.239433,106.78552,9,2023-04-15 13:26:00,P00001,Adam Malik,-6.236466,106.74786,10.0,4/15/2023 14:54,3500.0
BIGA037K8M38DC,3512490000000000.0,dki,Embuh Nainggolan,M,1972,9H,Blok M - Universitas Indonesia,1,B05259P,SMAN 109,-6.344687,106.83351,42,2023-04-15 13:13:00,B05830P,Univ. Indonesia,-6.353357,106.83186,44.0,4/15/2023 13:53,3500.0
IBON889S7X36OP,4245950000000.0,online,Rosman Wijaya,M,2012,M7B,BKN - Blok M,1,B00719P,Gunawarman 2,-6.234276,106.80756,2,2023-04-15 21:20:00,B00290P,Dammara,-6.25419,106.83146,18.0,4/15/2023 22:37,
VHGE146E9J27VX,4390440000000000.0,dki,Bakiman Puspasari,M,1984,13D,Puri Beta - Ragunan,1,,Mampang Prapatan,-6.242699,106.82572,9,2023-04-15 13:01:00,P00043,Cipulir,-6.237818,106.76541,18.0,4/15/2023 14:29,3500.0
UEER004N5L11XN,4434150000000000.0,dki,Manah Mustofa,F,1964,JAK.72,Kampung Rambutan - Pasar Rebo via Poncol,1,B04240P,Sbr. Premier Terrace,-6.329219,106.87629,14,2023-04-15 15:27:00,B03359P,SDN Ciracas 11/15,-6.323356,106.88389,20.0,4/15/2023 16:35,0.0
UGKJ073E9O64XZ,3553990000000000.0,dki,"Dt. Daliman Novitasari, M.TI.",F,1998,11C,Rusun Pinus Elok - Rusun Pulo Gebang,0,B00082P,At Thahiriah 2,-6.210011,106.93809,6,2023-04-15 20:27:00,B03290P,Rusun Pulo Gebang,-6.201478,106.94975,9.0,4/15/2023 20:43,0.0
QLTS606E4S23WF,4246460000000000.0,dki,Luthfi Sitorus,M,1980,6Q,Dukuh Atas - Casablanca via Epicentrum Raya,0,P00261,Tosari,-6.196892,106.82309,20,2023-04-15 10:46:00,B06055P,Puskesmas Setiabudi,-6.206893,106.83367,24.0,4/15/2023 11:01,3500.0
HKZV524V4W82YP,675925000000.0,flazz,"Karimah Hardiansyah, S.Sos",M,1977,S12,BSD Serpong - Fatmawati,1,B05488P,St. MRT Fatmawati,-6.292589,106.7936,0,2023-04-15 18:18:00,B05701P,Term. BSD,-6.306375,106.68536,4.0,4/15/2023 18:54,20000.0
ZCWD729T9O79NA,342444000000000.0,emoney,Zamira Mustofa,F,1998,JAK.54,Grogol - Benhil,0,B02246P,Masjid Al Istiqomah Tomang,-6.171213,106.79872,30,2023-04-15 12:52:00,B05705P,Term. Grogol 2,-6.16618,106.79329,36.0,4/15/2023 13:12,0.0
EFSU591Q8X20SN,4320980000000000.0,dki,Puti Vanya Setiawan,M,2003,M1H,,0,B01232P,Jln. Kb. Kacang VIII,-6.187181,106.81827,8,2023-04-15 08:48:00,B02830P,Pharmin,-6.182988,106.81306,12.0,4/15/2023 9:14,
AMQT096G4S03OU,5202120000000000.0,dki,H. Timbul Waluyo,M,1989,JAK.47,Pasar Minggu - Ciganjur via KB Ragunan,0,B03353P,SDN Cipedak 05,-6.354478,106.80119,4,2023-04-15 05:12:00,B03516P,Sbr. Gg. Cemara Cilandak KKO,-6.299539,106.81463,31.0,4/15/2023 6:27,0.0
JGYY810Z4B98FH,30466000000000.0,bni,Unjani Yuniar,F,1996,1C,Pesanggrahan - Blok M,0,B06752P,Sbr. Jln. H. Nian,-6.245178,106.757087,17,2023-04-15 14:57:00,B02392P,Mayestik 2,-6.241772,106.79096,31.0,4/15/2023 16:30,3500.0
VLRL700W2Z04VX,6572850000000000.0,dki,Jane Lazuardi,F,2009,JAK.118,Taman Waduk Papanggo - Kota Tua,0,B06691P,Sbr. SDN Pademangan Timur 05 07,-6.132995,106.84423,19,2023-04-15 13:41:00,B02213P,Mangga Dua Square,-6.135311,106.83102,28.0,4/15/2023 14:59,0.0
VYHG417A0G97DY,4744410000000.0,online,dr. Farah Sinaga,F,2006,JAK.80,Rawa Buaya - Rawa Kompeni,1,B03082P,Rawa Buaya 2,-6.153725,106.72613,44,2023-04-15 21:39:00,B04875P,Simpang Jln. Rawa Buaya,-6.160511,106.72757,46.0,4/15/2023 22:22,0.0
VVXX521L2B31YK,180008000000000.0,emoney,Raihan Januar,M,1977,JAK.39,Kalimalang - Duren Sawit,1,B03363P,SDN Duren Sawit 02,-6.22516,106.91453,24,2023-04-15 13:14:00,,Jln. Serdang,-6.228906,106.91459,26.0,4/15/2023 14:13,0.0
JXGU939Q1H15IY,3570870000000000.0,dki,Cindy Utama,F,2009,4D,Pulo Gadung 2 - Kuningan,0,P00188,Pramuka BPKP,-6.192192,106.87401,8,2023-04-15 19:26:00,P00189,Pramuka LIA,-6.192238,106.86858,9.0,4/15/2023 20:30,3500.0
GNCZ092N9G69ZT,4171370000000000.0,dki,"Ir. Padma Widiastuti, M.TI.",M,1994,M1H,Tanah Abang - St. Gondangdia,0,B04728P,Simpang Blok A,-6.187214,106.81611,9,2023-04-15 21:31:00,P00056,Explorer Tanah Abang,-6.184305,106.81158,13.0,4/15/2023 22:19,
YOUS635K3O04LS,180032000000000.0,emoney,Bella Pradana,F,2001,2E,Rusun Rawa Bebek - Kodamar,0,B01806P,Kampung Padaengan 1,-6.189361,106.93472,18,2023-04-15 05:33:00,B01850P,Kayu Mas,-6.17911,106.90255,25.0,4/15/2023 5:49,0.0
MQJF078G6Z17JD,30230900000000.0,bni,Tami Saputra,M,1997,JAK.58,Cilincing - Rorotan,0,B00602P,Gedung Pramuka,-6.111364,106.92566,11,2023-04-15 10:05:00,B05807P,Tugu Batas Marunda Rorotan,-6.130868,106.95545,46.0,4/15/2023 11:34,0.0
ZMCB688G8M50IQ,30531100000000.0,bni,Irnanto Sihotang,M,1994,6P,Cibubur - Kuningan,0,B01893P,Kedubes Malaysia,-6.22384,106.83259,8,2023-04-15 14:30:00,B02103P,Kuningan Madya 2,-6.213358,106.83027,11.0,4/15/2023 15:52,20000.0
RCHQ849N4A03DG,4571310000000000.0,dki,"Ajiono Agustina, M.Kom.",M,2004,D11,Depok - BKN,1,B01725P,Jasa Warga,-6.380045,106.85354,2,2023-04-15 07:36:00,B00005P,ACE Hardware,-6.387532,106.82738,9.0,4/15/2023 8:25,3500.0
MIKG104L2X35GL,4725970000000000.0,dki,"Citra Rahayu, S.Kom",M,1997,1T,Cibubur - Balai Kota,0,B05774P,Tosari 2,-6.198915,106.82295,10,2023-04-15 20:46:00,,,,,,,20000.0
QOAF980S2Z55BD,4338020000000000.0,dki,"Dartono Haryanto, S.E.I",F,1985,JAK.13,Tanah Abang - Jembatan Lima,1,B03037P,Pusenlis,-6.187443,106.80804,31,2023-04-15 13:58:00,B02505P,Museum Textile,-6.188656,106.80954,33.0,4/15/2023 15:14,0.0
QBXM464Q0Z33QJ,4190540000000.0,online,R. Olga Wasita,M,1968,JAK.86,Term. Rawamangun - Term. Manggarai,1,B05590P,Taman Gg. Kelor,-6.21124,106.85879,6,2023-04-15 05:55:00,B06561P,TPU Kemiri Rawamangun,-6.19676,106.88091,20.0,4/15/2023 7:45,0.0
ZIXT847D3T71TX,3589100000000000.0,dki,Laila Wahyudin,M,1975,8A,Jelambar - Juanda,0,P00209,RS Tarakan,-6.171146,106.81011,4,2023-04-15 06:32:00,P00161,Pecenongan,-6.16771,106.82819,6.0,4/15/2023 7:20,3500.0
ZWPK403X4L91IC,213105000000000.0,emoney,Jaswadi Saefullah,M,1966,9A,PGC 2 - Grogol 2,1,P00225,Slipi Kemanggisan Arah Selatan,-6.189781,106.79726,3,2023-04-15 18:30:00,P00252,Tegal Parang Arah Timur,-6.239005,106.83106,9.0,4/15/2023 18:48,3500.0
VMUW868H0T90FL,180065000000000.0,emoney,Laksana Tampubolon,M,1982,9N,Pinang Ranti - Pramuka,1,P00064,Garuda Taman Mini,-6.290154,106.88116,1,2023-04-15 14:53:00,P00179,Pinang Ranti,-6.291075,106.88634,2.0,4/15/2023 15:44,3500.0
PDSM069B9H23VI,3561830000000000.0,dki,Melinda Waskita,F,1984,5,Matraman Baru - Ancol,0,P00021,Budi Utomo,-6.166063,106.83906,9,2023-04-15 08:46:00,P00003,Ancol,-6.127563,106.83039,14.0,4/15/2023 9:31,3500.0
XLZO809T3X44UG,30571100000000.0,bni,"Balangga Siregar, S.IP",M,2012,3,Kalideres - Bundaran HI via Veteran,1,P00088,Jembatan Baru,-6.154831,106.73038,10,2023-04-15 12:26:00,P00175,Pesakih,-6.154803,106.71527,13.0,4/15/2023 13:26,3500.0
GQDV233H4X19SL,30189200000000.0,bni,Melinda Manullang,M,1985,JAK.45,Lebak Bulus - Ragunan,1,B02895P,Poins Square,-6.289207,106.77718,45,2023-04-15 20:49:00,B02129P,Lebak Bulus Jak Lingko,-6.289301,106.77299,46.0,4/15/2023 22:16,0.0
ZEVR179P8B56ON,4460800000000.0,online,Michelle Hidayat,F,1993,JAK.118,Taman Waduk Papanggo - Kota Tua,0,B06681P,Waduk Papanggo,-6.127219,106.87284,0,2023-04-15 12:47:00,B06683P,Sbr. Sunter Agung,-6.132599,106.85538,11.0,4/15/2023 13:53,0.0
FOEU853U1H35PS,676159000000.0,flazz,"H. Eja Novitasari, S.Farm",F,1988,JAK.32,Lebak Bulus - Petukangan,0,B03254P,Ruko Pondok Pinang Centre,-6.27349,106.77388,7,2023-04-15 15:33:00,B01022P,Jln. Damai IV Petukangan,-6.248117,106.75192,37.0,4/15/2023 16:37,0.0
BPON616A0C83BF,3541470000000000.0,dki,Puput Astuti,M,1976,10K,Tanjung Priok - Senen via Taman BMW,0,B00083P,Atrium 1,-6.177759,106.8412,33,2023-04-15 19:03:00,,,,,,,3500.0
GOTJ020H5E54GI,502097000000.0,flazz,Unjani Zulkarnain,F,2003,6,Ragunan - Dukuh Atas 2,1,,Kuningan Madya,-6.21341,106.8305,2,2023-04-15 13:13:00,P00228,SMK 57,-6.290967,106.82365,15.0,4/15/2023 14:37,3500.0
AUFC226A1J69ME,30067300000000.0,bni,Vanesa Suryono,M,2009,10K,Tanjung Priok - Senen via Taman BMW,0,,Taman Sunter,-6.150072,106.85779,12,2023-04-15 16:27:00,B03157P,RS Mitra Keluarga Kemayoran,-6.152358,106.85802,13.0,4/15/2023 18:13,3500.0
DNSO482P7X13JN,4.07668e+18,brizzi,Betania Puspita,F,1973,JAK.14,Tanah Abang - Meruya,0,B04661P,Sekolah Tarsisius 2,-6.199502,106.7824,35,2023-04-15 06:09:00,B04350P,Sbr. SDN Kb. Jeruk 08,-6.198507,106.76694,46.0,4/15/2023 6:43,0.0
TPWH901P3R31WV,213143000000000.0,emoney,Irfan Sirait,F,1983,M13,Puri Beta 2 - Tendean,1,P00259,Tirtayasa,-6.239207,106.80777,2,2023-04-15 07:25:00,P00001,Adam Malik,-6.236466,106.74786,10.0,4/15/2023 8:39,3500.0
AUPV540B6Z55MS,2289550000000000.0,dki,Hana Rajasa,M,1986,6N,Ragunan - Blok M via Kemang,1,B03197P,RSIA Kemang,-6.285839,106.8188,18,2023-04-15 20:06:00,B01970P,Kementerian Pertanian,-6.29705,106.82127,21.0,4/15/2023 20:35,3500.0
DTDL034Z7P67LY,6548040000000000.0,dki,"R. Rahayu Lailasari, M.Farm",F,2007,,,1,B04209P,Sbr. Plaza Kemang 88,-6.270024,106.81553,12,2023-04-15 07:03:00,B02064P,Komplek Polri Ragunan,-6.283756,106.81918,17.0,4/15/2023 8:19,3500.0
KMVL008T0A85YS,4857310000000000.0,dki,Hartana Prasasta,M,1984,R1A,Pantai Maju - Kota,0,B03407P,SDN Penjaringan 3,-6.12509,106.80254,30,2023-04-15 11:55:00,B02361P,Masjid Luar Batang,-6.126266,106.8044,31.0,4/15/2023 12:49,3500.0
LUGU644S8G00AB,3557190000000000.0,dki,Janet Wahyuni,M,1988,JAK.11,Tanah Abang - Kebayoran Lama,0,B01917P,Kel. Grogol Utara,-6.208498,106.78924,26,2023-04-15 05:31:00,B01259P,Jln. Kemandoran VII Grogol Utara,-6.209631,106.78344,31.0,4/15/2023 7:02,0.0
WTGQ396W2T99OW,347864000000000.0,emoney,Yulia Utama,F,1989,4E,Rusun Jatinegara Kaum - Pulo Gadung,0,B02274P,Masjid Assuada,-6.194327,106.90544,11,2023-04-15 15:50:00,B02671P,Ps. Pulo Gadung 2,-6.18751,106.90589,14.0,4/15/2023 17:19,0.0
WIIZ197T9Z52BT,4921580000000000.0,dki,Najwa Wulandari,M,1980,D32,Cinere - Bundaran Senayan,0,B02414P,Menara Mandiri,-6.223667,106.8071,11,2023-04-15 21:10:00,B00611P,Gelora Bung Karno 1,-6.224642,106.8056,12.0,4/15/2023 21:29,20000.0
PTJL464V5M21JQ,675975000000.0,flazz,Titin Sitompul,M,1985,M10,PGC 2 - Tanjung Priok,0,P00002,Ahmad Yani Bea Cukai,-6.205526,106.87378,8,2023-04-15 19:48:00,P00171,Permai Koja Arah Utara,-6.11413,106.89309,19.0,4/15/2023 21:28,3500.0
TMPI665Z9D55MV,3554800000000000.0,dki,"Sutan Gada Adriansyah, M.Pd",M,1977,B14,Bekasi Barat - Kuningan,1,B00795P,Imperium,-6.210363,106.83059,1,2023-04-15 10:10:00,B05887P,Wisma Budi,-6.214325,106.83073,2.0,4/15/2023 11:25,20000.0
OLBT085N9H07MQ,30222300000000.0,bni,Padma Yuliarti,F,1972,6H,Senen - Lebak Bulus,0,B02895P,Poins Square,-6.289207,106.77718,43,2023-04-15 17:52:00,P00128,Lebak Bulus,-6.289413,106.77415,44.0,4/15/2023 18:28,3500.0
ZFRQ952O3J65PP,30524800000000.0,bni,Paiman Adriansyah,M,2002,5C,PGC - Juanda,1,P00134,Matraman 1,-6.19998,106.85443,6,2023-04-15 11:30:00,P00031,Cawang Otista,-6.243607,106.86876,14.0,4/15/2023 12:00,3500.0
MBZY087I0O78DF,4413020000000000.0,dki,Tirtayasa Halimah,F,1993,2P,Gondangdia - Senen,0,B00390P,Gambir 3,-6.178796,106.83095,5,2023-04-15 06:57:00,B04647P,Sekolah Penabur Gunung Sahari,-6.170053,106.84024,13.0,4/15/2023 7:21,3500.0
PLJY727H5P92WI,30348600000000.0,bni,R.A. Yani Narpati,M,2000,6N,Ragunan - Blok M via Kemang,0,B00037P,Ampera 3,-6.291196,106.81706,4,2023-04-15 12:20:00,B02364P,Masjid Nurul Falah,-6.257714,106.81326,20.0,4/15/2023 13:18,3500.0
WEOJ367R8S65AL,676277000000.0,flazz,Ir. Abyasa Yulianti,F,2001,6M,Stasiun Manggarai - Blok M,0,P00047,Departemen Kesehatan,-6.228794,106.833205,7,2023-04-15 11:15:00,P00071,Gelora Bung Karno,-6.224217,106.8058,11.0,4/15/2023 12:52,3500.0
BOBV511E9A30XC,3531080000000000.0,dki,Kani Siregar,F,2009,6D,Stasiun Tebet - Karet via Underpass,0,B03012P,Puri Casablanca,-6.225081,106.8384,19,2023-04-15 06:28:00,P00235,Stasiun Tebet,-6.225503,106.85814,23.0,4/15/2023 6:48,3500.0
SBAM893K1O06LQ,3551700000000000.0,dki,"Ir. Endah Pradipta, S.IP",M,1982,10A,Rusun Marunda - Tanjung Priok,1,P00055,Enggano,-6.11015,106.89242,1,2023-04-15 12:04:00,B03282P,Rusun Marunda,-6.097099,106.96231,7.0,4/15/2023 13:35,0.0
JBFS488H1K73YG,4.39838e+18,brizzi,dr. Dimaz Prasetya,F,2001,M5,Matraman Baru - Ancol,0,P00214,Salemba UI,-6.193373,106.84891,7,2023-04-15 08:32:00,P00142,Pal Putih,-6.184631,106.84402,9.0,4/15/2023 10:24,3500.0
PPKU060I1E16NH,30279300000000.0,bni,drg. Bajragin Budiyanto,M,1979,JAK.16,Cililitan - Condet,1,B01329P,Jln. M Sarbini Munggang,-6.276747,106.85169,7,2023-04-15 15:20:00,B00410P,Gg. Ayama,-6.27204,106.8671,29.0,4/15/2023 16:51,0.0
CXQL169U0C22QB,502079000000.0,flazz,Radika Hassanah,M,1984,1B,Stasiun Palmerah - Tosari,0,B00673P,Graha Kemenpora,-6.214153,106.79891,1,2023-04-15 10:24:00,B05816P,TVRI,-6.213698,106.80086,2.0,4/15/2023 11:34,3500.0
EYMB811J2K26RW,676313000000.0,flazz,Cakrajiya Uyainah,F,1989,JAK.46,Pasar Minggu - Jagakarsa,1,B03352P,SDN Cipedak 03,-6.349096,106.80933,41,2023-04-15 17:22:00,B01048P,Jln. Dul Djaim Cipedak,-6.36178,106.80714,43.0,4/15/2023 18:01,0.0
DCZI589Q7C19IH,30482000000000.0,bni,"Luwes Anggraini, S.I.Kom",M,1982,10B,Rusun Cipinang Besar Selatan - Penas Kalimalang,0,B05536P,STMT Trisakti 2,-6.231981,106.8777,2,2023-04-15 10:15:00,B02723P,Penas Kalimalang 2,-6.239095,106.87826,3.0,4/15/2023 11:15,0.0
BLNM807A2S04WB,180037000000000.0,emoney,"Puti Chelsea Haryanti, S.T.",F,2002,9N,Pinang Ranti - Pramuka,0,P00179,Pinang Ranti,-6.291075,106.88634,0,2023-04-15 16:49:00,P00064,Garuda Taman Mini,-6.290154,106.88116,1.0,4/15/2023 18:44,3500.0
VVRJ202K6K74QB,4.36214e+18,brizzi,Zalindra Hidayanto,M,1983,JAK.118,,1,B05974P,SDN Pademangan Barat 07,-6.13396,106.83798,16,2023-04-15 17:27:00,B06076P,Sbr. SDN Sunter Agung 09,-6.127635,106.85913,28.0,4/15/2023 18:38,0.0
CQYA647M7X97AX,4498490000000000.0,dki,Ajeng Oktaviani,M,2002,JAK.07,Tanah Abang - Grogol via Tawakal,1,B04984P,Simpang Mandala Raya Selatan,-6.175729,106.79887,14,2023-04-15 15:37:00,B05144P,Simpang Semangka III,-6.180659,106.80608,24.0,4/15/2023 15:58,0.0
RDKT692A4S53YL,6011520000000000.0,dki,Agus Puspasari,M,2009,11B,Rusun Rawa Bebek - Penggilingan,0,B06655P,Walikota Jakarta Timur 2,-6.212722,106.94472,1,2023-04-15 12:31:00,B06652P,Penggilingan 1,-6.214459,106.93945,3.0,4/15/2023 13:33,0.0
OBPU301F8Z31WH,3540850000000000.0,dki,Drs. Puji Mansur,F,2012,12B,Pluit - Senen,1,B02492P,Muara Karang Raya,-6.116812,106.78016,34,2023-04-15 10:53:00,,SMAK Penabur Enam 1,-6.114247,106.77389,37.0,4/15/2023 11:35,3500.0
DBNC640R1V16IB,3539100000000000.0,dki,Dinda Kuswoyo,M,1967,JAK.48B,Stasiun Tebet - Kampung Melayu,1,B01804P,Kampung Melayu Besar 2,-6.225314,106.86292,6,2023-04-15 20:43:00,B05512P,St. Tebet 3,-6.225604,106.85923,7.0,4/15/2023 22:12,
UFZD782O3P72QT,639017000000.0,flazz,Amelia Prastuti,F,1988,4F,Pinang Ranti - Pulo Gadung,0,B02274P,Masjid Assuada,-6.194327,106.90544,47,2023-04-15 18:22:00,B02997P,Pulo Gadung,-6.183245,106.90868,53.0,4/15/2023 20:02,3500.0
NJOK363E7F51WV,5204760000000000.0,dki,"Satya Usada, S.Pt",F,1992,,,0,B00248P,Cibubur Junction,-6.368735,106.89366,0,2023-04-15 18:07:00,P00016,BKN,-6.257751,106.87,1.0,4/15/2023 19:48,3500.0
OSUJ383B1T09YV,3531780000000000.0,dki,Ir. Hamima Maulana,M,1965,JAK.61,,0,B01464P,Jln. Pelepah Elok VIII,-6.149005,106.90064,27,2023-04-15 18:50:00,B01463P,Jln. Pelepah Elok I,-6.152983,106.90908,31.0,4/15/2023 19:59,0.0
OFLV111C3S21WO,6517880000000000.0,dki,Putri Uwais,M,1988,M6,Ragunan - MH Thamrin,1,P00228,SMK 57,-6.290967,106.82365,2,2023-04-15 06:17:00,P00129,Mampang Prapatan,-6.242699,106.82572,9.0,4/15/2023 7:18,3500.0
NFZR079U3H27HJ,501815000000.0,flazz,Usyi Putra,M,1989,10B,Rusun Cipinang Besar Selatan - Penas Kalimalang,0,B03270P,Rusun Cipinang Besar Selatan,-6.231625,106.88288,0,2023-04-15 10:58:00,B05536P,STMT Trisakti 2,-6.231981,106.8777,2.0,4/15/2023 11:14,0.0
DVJD774R8H28EX,2702780000000000.0,dki,"T. Harja Lailasari, M.Ak",M,1996,M8,Lebak Bulus - Pasar Baru,0,P00111,Kedoya Green Garden,-6.164435,106.76301,9,2023-04-15 19:28:00,P00128,Lebak Bulus,-6.289413,106.77415,23.0,4/15/2023 21:06,3500.0
TBSU702Z2U35AI,4701360000000000.0,dki,"Drs. Janet Kusumo, M.Pd",F,1993,10K,Tanjung Priok - Senen via Taman BMW,1,B05390P,SMPN 79,-6.15727,106.85677,19,2023-04-15 13:30:00,B01161P,Jln. Industri Tj. Priok,-6.118624,106.86783,35.0,4/15/2023 14:09,3500.0
ZHSD701J2B03OL,3568760000000000.0,dki,Dr. Nilam Usada,F,1993,JAK.27,Pulo Gebang - Rorotan,0,B02507P,Mushola Al Barkah,-6.184846,106.95902,24,2023-04-15 19:08:00,B04615P,Sekolah At Taqwa Karang Tengah,-6.149841,106.97189,46.0,4/15/2023 19:31,0.0
GUNT943F1K68BQ,639044000000.0,flazz,Hani Samosir,F,1983,8E,Bintaro - Blok M,0,B01465P,Jln. Pelita,-6.250861,106.7782,18,2023-04-15 09:19:00,P00155,Pasar Kebayoran Lama,-6.238413,106.78323,23.0,4/15/2023 9:56,3500.0
GUUL432O2Y82XO,4615600000000000.0,dki,Talia Budiman,M,1996,JAK.42,Kampung Melayu - Pondok Kelapa,1,B03960P,Sbr. Komplek Bina Marga I,-6.233147,106.93473,4,2023-04-15 20:13:00,B01168P,Jln. Jatinegara Timur III,-6.218533,106.86864,40.0,4/15/2023 21:00,0.0
YZBG555S0B31VC,4198100000000000.0,dki,"Karna Nugroho, S.Pd",F,1981,JAK.56,Grogol - Srengseng,0,,Indosiar 2,-6.163521,106.77527,10,2023-04-15 10:46:00,B05177P,Simpang Tj. Duren Timur 5,-6.180482,106.78375,28.0,4/15/2023 11:54,0.0
OGAA761D3G77UA,4172790000000000.0,dki,Langgeng Anggraini,M,1989,M3,Kalideres - Bundaran HI via Veteran,0,P00237,Sumur Bor,-6.153046,106.71929,14,2023-04-15 06:53:00,P00099,Kalideres,-6.154412,106.7055,16.0,4/15/2023 7:29,3500.0
YPQG305Z5M49OX,4985520000000000.0,dki,Ana Pertiwi,F,1989,M9,Pinang Ranti - Pluit,0,,S Parman Podomoro City Arah Barat,-6.175587,106.79223,17,2023-04-15 19:48:00,P00089,Jembatan Besi,-6.152005,106.7949,20.0,4/15/2023 21:05,3500.0
VNSL440E9T06UY,676215000000.0,flazz,Fathonah Susanti,F,1993,JAK.88,Terminal Tanjung Priok - Ancol Barat,0,B02922P,Pompa VIaduct Ancol,-6.131663,106.83107,24,2023-04-15 13:14:00,B05980P,Musala Al Ishlah,-6.12776,106.81757,31.0,4/15/2023 15:11,0.0
VKCG922I9O20WM,4023930000000.0,online,Cakrabuana Halimah,M,1985,JAK.06,Kampung Rambutan - Pondok Gede,1,B00901P,Jln. Baru Tanah Merdeka,-6.307818,106.87362,9,2023-04-15 10:51:00,B05415P,SPBU Setu,-6.305882,106.91644,28.0,4/15/2023 11:11,0.0
HKQB601G5I73AO,4.68635e+18,brizzi,"Puji Hidayanto, M.Farm",F,1990,JAK.25,Kp. Rambutan - Kalisari,0,B00423P,Gg. Bidan Baru,-6.327013,106.85027,29,2023-04-15 17:09:00,B04346P,Sbr. SDN Kalisari 05,-6.336733,106.8551,41.0,4/15/2023 17:47,0.0
UXXA945B0B05JT,3528330000000000.0,dki,Hilda Sudiati,F,1993,13D,Puri Beta - Ragunan,0,P00001,Adam Malik,-6.236466,106.74786,2,2023-04-15 20:04:00,P00199,Ragunan,-6.305769,106.81949,22.0,4/15/2023 20:20,3500.0
YFRG558X4T31CZ,4771590000000000.0,dki,R.M. Prasetyo Wahyuni,F,1949,2H,Rusun Jati Rawasari - Senen,0,B00770P,Honda Letjen Suprapto,-6.174933,106.84973,4,2023-04-15 09:30:00,B03199P,RSPAD 1,-6.176162,106.83987,5.0,4/15/2023 9:48,0.0
MIWP176J4X21LP,4454220000000000.0,dki,Cemplunk Pertiwi,M,1983,7F,Kampung Rambutan - Juanda via Pasar Baru,1,P00219,Senen,-6.178211,106.84251,2,2023-04-15 08:19:00,,RS Harapan Bunda,-6.301956,106.86803,13.0,4/15/2023 9:50,3500.0
GMDW458E0K58LI,5427770000000000.0,dki,Ida Megantara,F,1989,10K,Tanjung Priok - Senen via Taman BMW,0,B02286P,Masjid Baitul Mukhlish Serdang,-6.155614,106.85854,19,2023-04-15 13:07:00,B01016P,Jln. D Utan Panjang III,-6.168769,106.85249,25.0,4/15/2023 14:32,3500.0
SFUI681T3X38MJ,213184000000000.0,emoney,Eli Safitri,M,2006,S21,Ciputat - CSW,1,B01812P,Kampus Uin 2,-6.307533,106.75621,22,2023-04-15 09:59:00,B03033P,Pusdiklat Kemenag 2,-6.312209,106.75252,25.0,4/15/2023 11:49,3500.0
NZPW270M0H40MK,676106000000.0,flazz,R.A. Yulia Winarsih,F,2009,6P,Cibubur - Kuningan,1,,Gama Tower,-6.22414,106.83303,8,2023-04-15 15:08:00,B02398P,Mega Syariah,-6.228294,106.83335,10.0,4/15/2023 16:16,20000.0
ATDM985Q5O32CL,4394580000000000.0,dki,"Drs. Caraka Najmudin, M.TI.",F,1980,JAK.39,Kalimalang - Duren Sawit,0,B05363P,SMPN 199,-6.230971,106.94309,23,2023-04-15 13:24:00,B05378P,SMPN 252,-6.239351,106.94234,39.0,4/15/2023 14:21,0.0
VTKM002P3K23QA,2443270000000000.0,dki,"Jane Gunawan, M.M.",F,2012,8E,Bintaro - Blok M,1,,Masjid Raya Nurul Hidayah,-6.253434,106.77626,16,2023-04-15 06:20:00,B00624P,Gerbang Tol Veteran,-6.261369,106.76721,20.0,4/15/2023 8:07,3500.0
MCLE209R2Q40VJ,180084000000000.0,emoney,Keisha Suartini,M,1983,,,0,B00019P,Akses Bawah Flyover Raya Bogor,-6.307687,106.86456,5,2023-04-15 12:33:00,B05645P,Taman Rekreasi Wiladatika,-6.369751,106.89248,49.0,4/15/2023 13:35,0.0
ZWBU604W6Q81WD,376450000000000.0,emoney,Diah Puspita,F,1974,S12,BSD Serpong - Fatmawati,1,B05488P,St. MRT Fatmawati,-6.292589,106.7936,0,2023-04-15 11:38:00,B00229P,Carrefour Lebak Bulus,-6.287529,106.7768,2.0,4/15/2023 12:14,20000.0
ZXWV676R0M78BK,4352820000000000.0,dki,"Cut Agnes Purwanti, S.IP",M,1981,10H,Tanjung Priok - Blok M,0,P00161,Pecenongan,-6.16771,106.82819,6,2023-04-15 08:22:00,P00218,Senayan JCC Arah Timur,-6.214145,106.809,13.0,4/15/2023 9:33,3500.0
VVTO722W2E03VC,38504300000000.0,bni,Ir. Oni Pratama,M,1992,4C,TU Gas - Bundaran Senayan,1,P00261,Tosari,-6.196892,106.82309,6,2023-04-15 10:27:00,,,,,,,3500.0
XENQ947F4L58ZZ,6595980000000000.0,dki,Carla Wahyudin,F,2012,10B,,0,B05536P,STMT Trisakti 2,-6.231981,106.8777,2,2023-04-15 09:04:00,B02723P,Penas Kalimalang 2,-6.239095,106.87826,3.0,4/15/2023 9:50,0.0
TPYX767R6V27WP,6011640000000000.0,dki,"Tgk. Banawi Anggraini, S.Gz",F,1971,9A,PGC 2 - Grogol 2,1,,BNN LRT,-6.245863,106.871143,15,2023-04-15 12:15:00,P00178,PGC 2,-6.2619,106.8657,19.0,4/15/2023 13:58,3500.0
BKJB377N0U30RD,4852230000000000.0,dki,Zelaya Sitorus,M,1947,5B,Stasiun Tebet - BNN,0,B05510P,St. Tebet 1,-6.225576,106.85862,0,2023-04-15 18:37:00,B03310P,Santa Maria,-6.21939,106.86445,5.0,4/15/2023 20:21,3500.0
BSHB002M7P73CZ,213185000000000.0,emoney,Jail Prasasta,F,2003,,Grogol - Srengseng,1,B01033P,Jln. Daud I Sukabumi Utara,-6.206437,106.77434,7,2023-04-15 11:48:00,B04093P,Sbr. Midi Utama Green Ville,-6.173087,106.77736,35.0,4/15/2023 13:05,0.0
PYXV645T0O34SC,3502240000000000.0,dki,Zaenab Uyainah,M,1984,8M,S. Parman - Tanah Abang,1,B01490P,Jln. Petojo Selatan VII,-6.168829,106.81058,11,2023-04-15 20:20:00,B04944P,Simpang KH Hasyim Cideng Barat,-6.166007,106.81033,12.0,4/15/2023 22:19,3500.0
GGXX498F9X68RR,213116000000000.0,emoney,Cawisono Simbolon,F,1992,JAK.04,,1,B05043P,Simpang Ps. Kb. Pisang,-6.152576,106.78156,18,2023-04-15 08:28:00,,Simpang Tubagus Angke,-6.144122,106.78319,23.0,4/15/2023 9:48,0.0
FUTT485I6X41KL,6591460000000000.0,dki,dr. Hadi Sudiati,M,2004,JAK.71,Kampung Rambutan - Pinang Ranti,1,B05095P,Simpang Puskesmas Penggilingan Baru,-6.301457,106.88133,12,2023-04-15 14:34:00,B02525P,Mutiara Pulo Dukuh,-6.302629,106.87781,16.0,4/15/2023 14:51,0.0
THEP400T2C07AZ,3574620000000000.0,dki,Irsad Marbun,F,2003,7E,Kampung Rambutan - Ragunan,0,B01418P,Jln. Nangka Raya,-6.304178,106.84515,14,2023-04-15 18:04:00,B01857P,Kebagusan Raya,-6.296314,106.82703,18.0,4/15/2023 18:25,3500.0
BYHB543S0M61PH,4467000000000.0,online,"Wulan Pangestu, S.Pd",M,2009,3E,Puri Kembangan - Sentraland Cengkareng,1,B06302P,Jln. Kencana Timur,-6.126985,106.72962,17,2023-04-15 18:50:00,B04682P,Sentraland Cengkareng,-6.139078,106.739378,22.0,4/15/2023 20:44,3500.0
TLOH660O5R63SQ,4242580000000000.0,dki,Diana Wijaya,F,1993,12B,Pluit - Senen,1,B04950P,Simpang Kopi Kali Besar Barat,-6.134507,106.81106,17,2023-04-15 06:09:00,P00008,Bandengan Selatan,-6.136318,106.80347,20.0,4/15/2023 7:30,3500.0
HLMF565V9B82MG,503859000000.0,flazz,Darmaji Wijaya,M,1975,JAK.117,Tanjung Priok - Tanah Merdeka,1,B04176P,Sbr. Ps. Ular Plumpang,-6.13029,106.89447,15,2023-04-15 10:12:00,B05728P,Term. Tj. Priok 1,-6.1098,106.88118,30.0,4/15/2023 10:31,0.0
PFZL608K4B50YH,4071590000000.0,online,Febi Hidayat,M,1993,T11,Poris Plawad - Bundaran Senayan,0,B02871P,Plaza Senayan 1,-6.224748,106.798376,23,2023-04-15 12:23:00,B04674P,Senayan City,-6.227767,106.798089,24.0,4/15/2023 12:48,3500.0
UYFF750M8P21GJ,3576980000000000.0,dki,Aditya Wibowo,M,1981,6U,Blok M - Pasar Minggu,0,B00719P,Gunawarman 2,-6.234276,106.80756,2,2023-04-15 06:12:00,B06633P,Sbr. Kel. Ps. Minggu,-6.285514,106.84058,27.0,4/15/2023 7:27,3500.0
JUNO879B5K11JS,3554470000000000.0,dki,"Wahyu Yuliarti, S.T.",M,1991,JAK.75,Cililitan - Kp. Pulo,1,B01379P,Jln. Melati,-6.272865,106.8769,7,2023-04-15 05:04:00,B02515P,Mushola At Taufiq,-6.261415,106.86704,20.0,4/15/2023 6:58,0.0
DXJG364N7W15DF,4649550000000000.0,dki,Tania Situmorang,F,1994,R1A,Pantai Maju - Kota,0,B06040P,Pantai Maju,-6.093637,106.75068,0,2023-04-15 14:31:00,B02207P,Mandara Permai 5,-6.116188,106.76214,12.0,4/15/2023 15:24,3500.0
LMNI369Z5I70YG,5399330000000000.0,dki,"Tina Maheswara, S.Sos",F,1990,JAK.08,Roxy - Benhil,0,B03579P,Sbr. Gedung Pompa Cideng Siantar,-6.173359,106.80682,3,2023-04-15 16:24:00,B05783P,TPU Karet Bivak,-6.201241,106.814,25.0,4/15/2023 17:47,0.0
SVYQ289U8I60YG,3544530000000000.0,dki,"Ajimin Siregar, S.E.",M,1993,M1,Blok M - Kota,0,P00133,Masjid Agung,-6.236483,106.79845,2,2023-04-15 08:15:00,P00098,Kali Besar Barat,-6.135355,106.81143,19.0,4/15/2023 10:04,3500.0
QLVP395M1J14KT,3529210000000000.0,dki,Rahmi Pratiwi,M,2011,1,Blok M - Kota,0,P00025,Bundaran HI,-6.193021,106.823,10,2023-04-15 11:30:00,P00291,Harmoni Arah Utara,-6.162678,106.819663,14.0,4/15/2023 12:13,3500.0
PIUI087V2F00BD,4446130000000000.0,dki,Intan Megantara,F,2006,JAK.13,Tanah Abang - Jembatan Lima,1,B01655P,Jln. Tanah Sereal XIII,-6.155353,106.80815,17,2023-04-15 19:19:00,B03188P,RSIA Aries,-6.157776,106.80822,19.0,4/15/2023 20:33,0.0
HSYE124C5V69SW,6011360000000000.0,dki,"Cut Lili Hutasoit, M.M.",M,1982,5D,PGC 1 - Ancol,1,P00021,Budi Utomo,-6.166063,106.83906,5,2023-04-15 05:54:00,P00109,Matraman Baru,-6.21288,106.86115,13.0,4/15/2023 7:26,3500.0
ZFSY665P8W91KA,3577820000000000.0,dki,R. Nrima Yuniar,F,1971,JAK.117,Tanjung Priok - Tanah Merdeka,0,B04033P,Sbr. Masjid Al Waqof,-6.11059,106.91725,24,2023-04-15 11:12:00,B05727P,Term. Tanah Merdeka,-6.106652,106.92171,26.0,4/15/2023 13:11,0.0
ZCAI904T2F95XU,378526000000000.0,emoney,Lili Prasetyo,F,1989,JAK.24,Senen - Pulo Gadung via Kelapa Gading,1,B05554P,Sunter Kelapa Gading 1,-6.142707,106.89049,26,2023-04-15 17:56:00,B02156P,Lotte Mart Kelapa Gading,-6.154215,106.89467,30.0,4/15/2023 19:35,0.0
QUJH232N9X56BP,3567240000000000.0,dki,"Tgk. Usyi Puspita, M.Kom.",F,1992,11C,Rusun Pinus Elok - Rusun Pulo Gebang,1,B06652P,Penggilingan 1,-6.214459,106.93945,6,2023-04-15 19:28:00,B05200P,Simpang Tiga 1,-6.210708,106.93903,7.0,4/15/2023 21:18,0.0
IUWD340R3U78DQ,2261800000000000.0,dki,Novi Widodo,F,2006,S22,Ciputat - Kampung Rambutan,0,B03148P,RS Jantung Binawaluya,-6.30841,106.87071,17,2023-04-15 21:06:00,B01377P,Jln. Mastrip,-6.306793,106.87756,19.0,4/15/2023 21:36,3500.0
HECL537H8W58WD,3502190000000000.0,dki,Prabawa Mayasari,F,2011,1K,Cibubur Junction - Blok M,0,,Menara Mandiri,-6.223667,106.8071,4,2023-04-15 10:43:00,B05544P,Summitmas,-6.225826,106.80402,6.0,4/15/2023 12:20,20000.0
YPTF504D5S52XG,4805190000000.0,online,Gabriella Maulana,M,1966,1P,Senen - Blok M,0,B06037P,Museum Kebangkitan,-6.178915,106.83877,9,2023-04-15 12:21:00,B00720P,Gunung Agung,-6.181755,106.83717,10.0,4/15/2023 13:20,3500.0
FMND429O2T55QV,373378000000000.0,emoney,"drg. Dian Rahmawati, M.Ak",M,1986,JAK.73,Jambore Cibubur - Pasar Rebo,1,B00993P,Jln. Cibubur Indah V,-6.350069,106.88415,29,2023-04-15 14:24:00,B03074P,Ramayana KDW,-6.351839,106.88432,51.0,4/15/2023 15:01,0.0
UCVO488M0J55HW,4.80285e+18,brizzi,"dr. Dalimin Saragih, S.Ked",F,1983,,Kalideres - Gelora Bung Karno,1,P00218,Senayan JCC Arah Timur,-6.214145,106.809,15,2023-04-15 07:13:00,P00071,Gelora Bung Karno,-6.224217,106.8058,16.0,4/15/2023 8:12,3500.0
PWBP660L3K45RG,30346000000000.0,bni,Mutia Siregar,M,1980,D31,Cinere - Kuningan,1,B06646P,Jln. Cinere Raya 2,-6.33358,106.78281,14,2023-04-15 14:13:00,B06073P,SPBU Limo Cinere 1,-6.343161,106.77878,16.0,4/15/2023 15:16,20000.0
TGHD984C3P66TY,4086070000000000.0,dki,Aditya Wijayanti,F,1989,JAK.26,Rawamangun - Duren Sawit,0,B04138P,Sbr. Ps. Cipinang Kebembem,-6.211874,106.88678,36,2023-04-15 18:58:00,B04776P,Simpang Cipinang Kebembem 1,-6.207671,106.88522,40.0,4/15/2023 20:19,0.0
XVTO049T2R84MA,4831300000000.0,online,"KH. Capa Fujiati, S.T.",M,1969,2F,Rusun Cakung Barat - Pulo Gadung,1,B06147P,Pasar Pulo Jaya,-6.195007,106.92255,6,2023-04-15 16:47:00,B02997P,Pulo Gadung,-6.183245,106.90868,16.0,4/15/2023 17:46,0.0
VBMP483C2Z73DB,347391000000000.0,emoney,"Kairav Pudjiastuti, S.E.",M,1985,JAK.54,Grogol - Benhil,0,B02079P,Koramil Jln. Brigjen Katamso,-6.189138,106.80508,13,2023-04-15 07:41:00,,,,,,,0.0
CNCN425U5E69EB,38629900000000.0,bni,Bakiadi Suryono,F,1985,JAK.48A,Stasiun Tebet - Rusun Karet Tengsin,0,B00243P,Cervino Village,-6.224355,106.85165,3,2023-04-15 21:47:00,B04016P,Sbr. Manhattan Hotel,-6.225591,106.83013,8.0,4/15/2023 23:02,
UPPM413Q6G51KD,30143000000000.0,bni,Ifa Pratama,M,2005,D32,Cinere - Bundaran Senayan,0,B05399P,South City Cinere,-6.34504,106.767638,0,2023-04-15 18:50:00,B00378P,FX Sudirman,-6.225532,106.8037,7.0,4/15/2023 20:37,20000.0
SMYW433P7E64HT,4.7605e+18,brizzi,Karimah Suryatmi,F,2010,9E,Kebayoran Lama - Jelambar,1,B05839P,Univ. Tarumanegara,-6.169759,106.78866,2,2023-04-15 07:34:00,P00230,St. Palmerah,-6.208908,106.79706,7.0,4/15/2023 8:03,3500.0
UYTZ710F9L00EN,38904300000000.0,bni,"Puti Olivia Nainggolan, S.Psi",F,1983,2F,Rusun Cakung Barat - Pulo Gadung,1,P00191,PTC Pulo Gadung,-6.182622,106.91561,15,2023-04-15 18:49:00,B02997P,Pulo Gadung,-6.183245,106.90868,16.0,4/15/2023 20:31,0.0
EBEV926E3J50OO,4652080000000000.0,dki,"Dr. Eka Waskita, S.E.",F,2001,11B,Rusun Rawa Bebek - Penggilingan,0,B06653P,Penggilingan 2,-6.214423,106.93973,2,2023-04-15 19:52:00,B06652P,Penggilingan 1,-6.214459,106.93945,3.0,4/15/2023 21:50,0.0
RDKB852H5E98BS,180016000000000.0,emoney,Ir. Maida Iswahyudi,M,1961,R1A,Pantai Maju - Kota,1,B06049P,Melody Golf,-6.091746,106.7461,40,2023-04-15 16:45:00,B06040P,Pantai Maju,-6.093637,106.75068,41.0,4/15/2023 17:04,3500.0
MVCR456C6Q95OX,4415330000000000.0,dki,Drs. Usyi Riyanti,M,1995,2F,Rusun Cakung Barat - Pulo Gadung,0,,Rusun Tipar Cakung,-6.171493,106.93731,5,2023-04-15 15:45:00,B03267P,Rusun Cakung Barat Albo,-6.16751,106.93243,6.0,4/15/2023 16:48,0.0
MAMW102S7V20ZN,213190000000000.0,emoney,Umar Saptono,F,1991,6T,Pasar Minggu - Velbak,0,B00253P,Cilandak Town Square,-6.291991,106.79967,20,2023-04-15 16:12:00,B02631P,Ps. Keramik Panglima Polim,-6.252307,106.797286,35.0,4/15/2023 16:31,3500.0
OWPD765C0V43LJ,5297530000000000.0,dki,Hana Farida,M,1993,2F,Rusun Cakung Barat - Pulo Gadung,1,B03267P,Rusun Cakung Barat Albo,-6.16751,106.93243,0,2023-04-15 16:00:00,B06149P,Sbr. Gg. H. Sayuti I,-6.212774,106.92351,10.0,4/15/2023 16:28,0.0
PGME944C7V42HH,346561000000000.0,emoney,"R.A. Talia Haryanti, M.M.",M,1998,6C,Stasiun Tebet - Karet via Patra Kuningan,0,B02965P,Pos Polisi Satrio,-6.225044,106.82827,16,2023-04-15 16:38:00,B01833P,Karet Pedurenan 1,-6.221933,106.82093,19.0,4/15/2023 18:31,3500.0
HQJN471Y4H93CA,6011270000000000.0,dki,R. Febi Lazuardi,M,2006,JAK.45,Lebak Bulus - Ragunan,0,B04355P,Sbr. SDN Lebak Bulus 01,-6.30353,106.7836,9,2023-04-15 20:32:00,B04205P,Sbr. Pintu Ragunan Barat,-6.31055,106.816,39.0,4/15/2023 21:36,0.0
JSMA202M8F72KX,5208660000000000.0,dki,"Sabrina Halim, S.Gz",F,1993,2P,Gondangdia - Senen,0,,Sekolah Penabur Gunung Sahari,-6.170053,106.84024,13,2023-04-15 06:29:00,B05725P,Term. Senen,-6.17356,106.84213,14.0,4/15/2023 6:55,3500.0
NHOZ892G8E35BZ,4.01586e+18,brizzi,Kawaca Dabukke,M,1949,JAK.49,Lebak Bulus - Cipulir,1,B02303P,Masjid Hifdzirrahim,-6.257359,106.75963,37,2023-04-15 15:48:00,B03561P,Sbr. Gg. Rw Ulujami Raya,-6.24941,106.76355,44.0,4/15/2023 17:19,0.0
FCPI351S2J84CO,4653940000000000.0,dki,"Tgk. Rahmi Waskita, M.Kom.",M,1982,JAK.04,Grogol - Tubagus Angke,0,B04848P,Simpang Indraloka 2,-6.15703,106.77786,7,2023-04-15 12:25:00,B00215P,Bunda Hati Kudus Jelambar,-6.165552,106.78484,13.0,4/15/2023 13:13,0.0
FXAL863D6L88FL,3575710000000000.0,dki,Garda Budiman,M,1974,JAK.04,Grogol - Tubagus Angke,1,B04823P,Simpang Hadiah 2,-6.160749,106.78554,8,2023-04-15 16:56:00,B02106P,Kusuma Timur Vihara Dharma Bhakti,-6.144916,106.78076,25.0,4/15/2023 17:57,0.0
JPEG469M8W85SS,3551540000000000.0,dki,Rika Susanti,F,1990,2Q,Gondangdia - Balai Kota,1,B02266P,Masjid Ar Rayyan Kementerian BUMN,-6.183117,106.82536,2,2023-04-15 08:29:00,B03596P,Sbr. Goethe Institute,-6.189435,106.83131,7.0,4/15/2023 9:54,3500.0
JXTR852N8J76YV,4.2159e+18,brizzi,"dr. Bakda Astuti, S.H.",F,1975,13D,Puri Beta - Ragunan,1,P00136,Mayestik,-6.241921,106.79077,14,2023-04-15 16:48:00,P00043,Cipulir,-6.237818,106.76541,18.0,4/15/2023 17:15,3500.0
BJJE822D5P42WZ,4.54603e+18,brizzi,"Kawaya Zulaika, S.Pd",M,1987,JAK.17,Senen - Pulo Gadung,0,B04647P,Sekolah Penabur Gunung Sahari,-6.170053,106.84024,53,2023-04-15 21:01:00,B05725P,Term. Senen,-6.17356,106.84213,54.0,4/15/2023 21:55,0.0
WZPJ478E4I47MJ,3553900000000000.0,dki,drg. Danang Mulyani,M,1966,6U,Blok M - Pasar Minggu,1,B02197P,Mampang 5,-6.24539,106.82584,18,2023-04-15 06:46:00,,Ps. Santa,-6.238971,106.8126,24.0,4/15/2023 8:17,3500.0
KQQX192D1S01XQ,2716000000000000.0,dki,Darmaji Fujiati,F,1990,JAK.115,Term. Tj. Priok - Pegangsaan II IGI,1,B06623P,Sekretariat Kelurahan Lagoa,-6.11801,106.9036,34,2023-04-15 17:45:00,B06625P,Gg. I Jln. Cipeucang V,-6.11442,106.90155,36.0,4/15/2023 19:13,0.0
JFDR141A0N65KB,4493390000000000.0,dki,H. Prakosa Prasasta,F,1996,JAK.85,Bintara - Cipinang Indah,0,B05788P,TPU Malaka,-6.229347,106.93522,13,2023-04-15 12:01:00,B05617P,Taman Malaka Selatan 1B,-6.23076,106.93343,15.0,4/15/2023 12:41,0.0
ACIH359E2K94DU,4.18765e+18,brizzi,"Cut Yessi Astuti, S.E.I",M,1988,M7B,BKN - Blok M,0,P00129,Mampang Prapatan,-6.242699,106.82572,17,2023-04-15 16:18:00,,Rawa Barat,-6.238947,106.81624,21.0,4/15/2023 17:02,
NLOH165P5W97EC,213118000000000.0,emoney,Harsaya Wastuti,M,1984,4D,Pulo Gadung 2 - Kuningan,1,P00266,Utan Kayu,-6.192728,106.86457,11,2023-04-15 07:13:00,P00238,Sunan Giri,-6.193267,106.88367,15.0,4/15/2023 8:23,3500.0
BCBS643Z6F53NC,36936500000000.0,bni,Ana Waluyo,F,1988,1T,Cibubur - Balai Kota,0,B05502P,St. Sudirman 2,-6.201883,106.82277,9,2023-04-15 12:40:00,B03314P,MH Thamrin 2,-6.188238,106.82277,12.0,4/15/2023 14:20,20000.0
MDMB961Z5L25JN,213161000000000.0,emoney,Calista Prastuti,M,2006,JAK.06,Kampung Rambutan - Pondok Gede,0,B01475P,Jln. Perdagangan,-6.305576,106.91666,31,2023-04-15 12:08:00,B00616P,Gerbang Tol Bambu Apus 2,-6.308108,106.89647,43.0,4/15/2023 12:25,0.0
TTHK295W5V69AE,3581470000000000.0,dki,Elma Samosir,F,1991,JAK.36,Cilangkap - Cililitan,1,B02613P,Ps. Hek 2,-6.286261,106.87094,2,2023-04-15 06:18:00,B00867P,Jln. As Syafiiyah Raya Cilangkap,-6.338197,106.89899,28.0,4/15/2023 6:42,0.0
ZMZK672U8B01NK,3553950000000000.0,dki,"Elma Safitri, M.Kom.",M,1975,JAK.11,Tanah Abang - Kebayoran Lama,0,P00056,Explorer Tanah Abang,-6.184305,106.81158,5,2023-04-15 05:16:00,B01917P,Kel. Grogol Utara,-6.208498,106.78924,26.0,4/15/2023 6:35,0.0
QGOE466Y9H32YX,4316770000000000.0,dki,"Ir. Sadina Sudiati, S.E.I",M,1993,JAK.21,Cililitan - Dwikora,0,B03591P,Sbr. Gereja Oikumene,-6.262305,106.88696,19,2023-04-15 16:59:00,B04413P,Sbr. Slb Angkasa,-6.255191,106.89134,24.0,4/15/2023 18:16,0.0
VVRJ258W3J00XX,3565770000000000.0,dki,"Hj. Latika Gunarto, M.Pd",F,1994,JAK.85,Bintara - Cipinang Indah,1,,Jln. Teluk Mandar 2,-6.238944,106.91004,13,2023-04-15 05:29:00,B04097P,Sbr. Minimarket Pondok Kelapa,-6.228599,106.93531,32.0,4/15/2023 6:03,0.0
PJET322U3G43EH,3584610000000000.0,dki,Dirja Thamrin,F,1986,JAK.112,Terminal Tanah Merah - Pulo Gadung,0,B05672P,Tanah Merah,-6.142042,106.90862,0,2023-04-15 08:06:00,B00172P,Boulevard Kelapa Hybrida Raya 1,-6.148453,106.90965,4.0,4/15/2023 9:54,0.0
EXGC531P4U30MI,2524840000000000.0,dki,Hasna Mustofa,M,1966,JAK.06,Kampung Rambutan - Pondok Gede,0,B03775P,Sbr. Jln. Mandor Munding,-6.306836,106.91572,32,2023-04-15 20:16:00,B03744P,Sbr. Jln. Kapuk Bambu Apus,-6.306466,106.91388,33.0,4/15/2023 21:16,0.0
ZZUW353H6W44KM,4261250000000000.0,dki,Darijan Situmorang,F,1997,JAK.46,Pasar Minggu - Jagakarsa,1,B03060P,Puskesmas Pasar Minggu,-6.320616,106.82544,30,2023-04-15 07:35:00,B05126P,Simpang Rindang Warung Sila,-6.345832,106.81159,38.0,4/15/2023 8:52,0.0
WCYR892A5U63KC,346179000000000.0,emoney,Anita Wibisono,F,1987,11C,Rusun Pinus Elok - Rusun Pulo Gebang,1,B02850P,Pintu Masuk PIK 1,-6.203692,106.935101,11,2023-04-15 16:28:00,B02800P,Perum Tpi 1,-6.197379,106.93513,14.0,4/15/2023 18:05,0.0
BFGA639P3P27VS,3520650000000000.0,dki,Dariati Pangestu,M,1984,M2,,0,P00082,Istiqlal,-6.172252,106.83093,16,2023-04-15 21:53:00,P00097,Juanda,-6.168048,106.83089,17.0,4/15/2023 23:36,3500.0
QYRO963P0U14VR,348020000000000.0,emoney,Dodo Budiyanto,F,1991,2B,Harapan Indah - ASMI,0,B01850P,Kayu Mas,-6.17911,106.90255,23,2023-04-15 09:38:00,P00005,ASMI,-6.171797,106.8888,25.0,4/15/2023 11:29,3500.0
WOAP362E7J78CT,3548810000000000.0,dki,Putri Wulandari,F,1981,JAK.77,Tanjung Priok - Jembatan Item,0,B06887P,Bank Capital Sunter,-6.137625,106.871634,23,2023-04-15 16:06:00,B05552P,Sunter Karya 2,-6.137641,106.86996,25.0,4/15/2023 16:57,0.0
PWQP112N2R39KL,213140000000000.0,emoney,Lili Latupono,F,1996,D31,Cinere - Kuningan,1,B04686P,Setiabudi Utara 2,-6.207513,106.8294,0,2023-04-15 15:18:00,B06646P,Jln. Cinere Raya 2,-6.33358,106.78281,14.0,4/15/2023 15:36,20000.0
LTKJ409W8O79QA,4403980000000000.0,dki,Baktiadi Wulandari,F,2006,JAK.08,Roxy - Benhil,1,B04088P,Sbr. Mess Polwan Esthi Bhakti Warapsari,-6.206604,106.81005,6,2023-04-15 14:41:00,B03806P,Sbr. Jln. Pam Baru,-6.204959,106.80949,7.0,4/15/2023 15:02,0.0
ZVZT930H1J84AD,4.00226e+18,brizzi,Darmana Saptono,F,2002,9C,Pinang Ranti - Bundaran Senayan,1,P00216,Semanggi,-6.22111,106.81354,2,2023-04-15 05:44:00,P00250,Tebet Eco Park II Arah Timur,-6.243056,106.85208,8.0,4/15/2023 6:16,3500.0
NYVK045H9Q51GQ,6515830000000000.0,dki,"Prayogo Maryadi, S.T.",F,1991,M11,Pulo Gebang - Pulo Gadung 2,1,P00102,Kampung Sumur,-6.214412,106.91189,2,2023-04-15 12:01:00,P00169,Penggilingan,-6.214132,106.93961,6.0,4/15/2023 12:23,3500.0
RUDD200C2A52WA,2524090000000000.0,dki,"Ulya Ramadan, M.Kom.",M,1984,M5,Matraman Baru - Ancol,0,P00140,Pademangan,-6.133704,106.83164,14,2023-04-15 13:14:00,P00003,Ancol,-6.127563,106.83039,15.0,4/15/2023 14:21,3500.0
GXIS153V5V43OJ,4328340000000000.0,dki,"Tgk. Paulin Sinaga, S.IP",F,2006,1M,Meruya - Blok M,0,B01198P,Jln. Kampung Baru V Swadarma,-6.224839,106.76071,21,2023-04-15 10:17:00,P00045,CSW 2,-6.239861,106.79783,40.0,4/15/2023 10:47,3500.0
MRJZ620P9B42CF,4423480000000000.0,dki,"Nyana Anggraini, S.Pt",F,1981,11D,Pulo Gebang - Pulo Gadung 2 via PIK,0,B00822P,Jagal 1,-6.190849,106.93465,26,2023-04-15 05:45:00,B01806P,Kampung Padaengan 1,-6.189361,106.93472,27.0,4/15/2023 7:02,3500.0
TKMK414X6N49KG,2308270000000000.0,dki,"Asirwanda Yolanda, M.M.",M,2012,JAK.07,Tanah Abang - Grogol via Tawakal,0,B01419P,Jln. Nangka Tomang Asli,-6.178329,106.80409,28,2023-04-15 05:07:00,B05207P,Simpang Tomang Tinggi Tawakal VI,-6.170244,106.79674,44.0,4/15/2023 5:44,0.0
EHEO603D9X72MV,4901810000000000.0,dki,Rachel Hutagalung,M,1988,JAK.61,Cempaka Putih - Pulo Gadung via Kelapa Gading,0,B02171P,Mahaka Square,-6.149939,106.90213,28,2023-04-15 15:39:00,B02376P,Masjid Raya Al Musyawarah Kelapa Gading,-6.154777,106.9091,33.0,4/15/2023 16:32,0.0
LKOW301J8B52TQ,6011680000000000.0,dki,"drg. Uli Purnawati, M.TI.",F,1989,9E,Kebayoran Lama - Jelambar,0,B00599P,Gedung Pertamina,-6.230483,106.78971,3,2023-04-15 08:42:00,P00226,Slipi Kemanggisan Arah Utara,-6.189906,106.79694,12.0,4/15/2023 9:19,3500.0
EQZN845Q1G71PJ,4.56454e+18,brizzi,Indra Kurniawan,F,1982,6M,Stasiun Manggarai - Blok M,0,P00180,Plaza St. Manggarai,-6.210225,106.85099,0,2023-04-15 16:29:00,P00077,Halimun,-6.205137,106.83338,2.0,4/15/2023 17:39,3500.0
JVFF259F4B79FS,2703420000000000.0,dki,Zaenab Novitasari,F,2008,L13E,Puri Beta - Kuningan (Express),0,P00120,Kuningan Madya,-6.21341,106.8305,10,2023-04-15 14:29:00,P00222,Setiabudi Utara,-6.209189,106.830237,11.0,4/15/2023 15:39,3500.0
BQTR333O9H42TT,4550110000000000.0,dki,Kamaria Palastri,F,2000,JAK.32,Lebak Bulus - Petukangan,1,B03301P,Sabar Raya,-6.241485,106.75189,23,2023-04-15 10:55:00,B00345P,Exit Tol Veteran Bintaro,-6.262649,106.76654,50.0,4/15/2023 11:17,0.0
UUHY770Q6T98AW,2577500000000000.0,dki,Bajragin Nasyiah,M,1999,L13E,Puri Beta - Kuningan (Express),0,P00073,GOR Sumantri,-6.221618,106.832245,8,2023-04-15 07:15:00,P00222,Setiabudi Utara,-6.209189,106.830237,11.0,4/15/2023 8:19,3500.0
LFYK989E4D34SZ,675957000000.0,flazz,Maryadi Pradana,F,2004,4D,Pulo Gadung 2 - Kuningan,0,P00159,Pasar Rumput,-6.207125,106.84112,13,2023-04-15 09:30:00,P00077,Halimun,-6.205137,106.83338,14.0,4/15/2023 10:36,3500.0
WBIN310G3X10WH,4238310000000.0,online,"dr. Zizi Hasanah, S.Sos",M,1992,6U,Blok M - Pasar Minggu,0,B05658P,Taman Suryo,-6.233753,106.81265,5,2023-04-15 19:58:00,B05265P,SMAN 28,-6.286109,106.83318,23.0,4/15/2023 20:29,3500.0
LWRB266N1C72FG,4004720000000000.0,dki,"Winda Wastuti, S.Pd",F,2006,2H,Rusun Jati Rawasari - Senen,1,B00687P,Grand Cempaka Hotel,-6.173334,106.86075,10,2023-04-15 12:39:00,B04344P,Sbr. SDN Johar Baru 10,-6.181178,106.86028,13.0,4/15/2023 14:37,0.0
AUZZ076I5T90GQ,6577910000000000.0,dki,"Dr. Samiah Najmudin, S.IP",F,1992,JAK.117,Tanjung Priok - Tanah Merdeka,0,B01387P,Jln. Menteng,-6.113156,106.91703,23,2023-04-15 20:43:00,B04863P,Simpang Jln. Kramat Jaya 1,-6.108656,106.91734,25.0,4/15/2023 22:08,0.0
OTWQ479F8T43VS,4.53168e+18,brizzi,R.A. Hafshah Haryanti,F,1984,1T,Cibubur - Balai Kota,1,B02873P,Plaza Sentral,-6.216247,106.81676,12,2023-04-15 09:23:00,B00248P,Cibubur Junction,-6.368735,106.89366,15.0,4/15/2023 10:57,20000.0
MAVE351U7T33WE,4767470000000000.0,dki,Gina Manullang,F,2003,JAK.04,Grogol - Tubagus Angke,1,B04534P,Sbr. Taman Permata Indah 1,-6.144081,106.78154,24,2023-04-15 15:08:00,B02106P,Kusuma Timur Vihara Dharma Bhakti,-6.144916,106.78076,25.0,4/15/2023 16:10,0.0
DBFA168R6K84HZ,4086260000000000.0,dki,Kani Prasetya,F,1998,JAK.74,Terminal Rawamangun - Cipinang Muara,0,B04106P,Sbr. MTsN 25 Jakarta,-6.214833,106.89575,5,2023-04-15 12:27:00,B00924P,Jln. Belanak III Rawamangun,-6.202063,106.89159,18.0,4/15/2023 14:13,0.0
SMYO978P1T48PG,6581960000000000.0,dki,Asman Rahimah,M,1987,,,1,B05744P,Tirtayasa 1,-6.239279,106.80756,26,2023-04-15 18:43:00,B06578P,Blok M Jalur 3,-6.243426,106.80188,29.0,4/15/2023 19:05,3500.0
UAEL562F0K43MT,3502890000000000.0,dki,Usyi Narpati,F,1995,JAK.73,Jambore Cibubur - Pasar Rebo,0,B05683P,Taufik Hidayat Arena,-6.340259,106.87678,4,2023-04-15 06:52:00,B02090P,KPP Pratama Pasar Rebo,-6.301337,106.86865,25.0,4/15/2023 8:33,0.0
DPOV860C6T67RE,502016000000.0,flazz,Opan Prasetyo,M,1989,12P,St. LRT Pegangsaan Dua - JIS,1,B06076P,Sbr. SDN Sunter Agung 09,-6.127635,106.85913,2,2023-04-15 17:56:00,P00240,Sunter Karya,-6.137625,106.87081,6.0,4/15/2023 18:21,3500.0
ZQJI425S9H52TP,4939660000000000.0,dki,Lintang Rajasa,M,1988,B11,Summarecon Bekasi - BNN,0,B02397P,Mega Mall Bekasi,-6.250287,106.992,3,2023-04-15 17:08:00,P00011,Bekasi Barat,-6.250045,106.99167,4.0,4/15/2023 17:28,3500.0
URYF466V3L47CK,3595540000000000.0,dki,Tari Manullang,M,2000,1T,Cibubur - Balai Kota,0,B02420P,Menara Thamrin,-6.185275,106.82291,13,2023-04-15 09:18:00,B00102P,Balai Kota 1,-6.180598,106.82847,16.0,4/15/2023 11:07,20000.0
FIZU223D4Y08HU,4182250000000.0,online,Silvia Saputra,F,1978,11Q,Kampung Melayu - Pulo Gebang via BKT,0,P00270,Walikota Jakarta Timur,-6.21254,106.94537,1,2023-04-15 06:12:00,B02016P,Komplek Abadi 2,-6.229722,106.90813,15.0,4/15/2023 6:34,3500.0
FWXW242P1Y10RI,4845270000000.0,online,Cager Oktaviani,M,1977,4B,Stasiun Manggarai - UI,1,P00257,Timur St. Manggarai,-6.209763,106.8511,45,2023-04-15 05:53:00,P00180,Plaza St. Manggarai,-6.210225,106.85099,46.0,4/15/2023 6:13,3500.0
IHLI218J1Q08TI,4542980000000000.0,dki,Kamila Widodo,M,2004,M6,Ragunan - MH Thamrin,1,P00103,Karet Kuningan,-6.21667,106.830737,14,2023-04-15 21:17:00,P00025,Bundaran HI,-6.193021,106.823,17.0,4/15/2023 22:33,3500.0
HPPY406U5P85IG,4.6743e+18,brizzi,Cengkal Haryanti,F,2002,6,Ragunan - Dukuh Atas 2,0,P00121,Kuningan Timur,-6.234731,106.82902,10,2023-04-15 09:34:00,P00124,Latuharhary,-6.202761,106.82771,17.0,4/15/2023 11:13,3500.0
VUKF285T2O58QZ,6011580000000000.0,dki,Wage Utami,F,1984,2H,Rusun Jati Rawasari - Senen,1,B05389P,SMPN 78,-6.173538,106.85226,4,2023-04-15 06:03:00,B03083P,Rawa Selatan 1,-6.174148,106.85794,12.0,4/15/2023 7:19,0.0
PLKO349M5L88MH,30011900000000.0,bni,Ilsa Wibisono,F,1981,1B,Stasiun Palmerah - Tosari,0,P00051,Dukuh Atas,-6.205702,106.82223,8,2023-04-15 12:57:00,P00261,Tosari,-6.196892,106.82309,9.0,4/15/2023 14:02,3500.0
ZHJW008K2R40TJ,676196000000.0,flazz,"Tgk. Kamidin Pertiwi, S.Psi",M,1999,6Q,Dukuh Atas - Casablanca via Epicentrum Raya,0,B05644P,Taman Rasuna Tower 17,-6.217105,106.83598,8,2023-04-15 19:16:00,,,,,,,3500.0
KLQH145W6T56UM,213109000000000.0,emoney,"Digdaya Usada, M.Kom.",F,2009,B14,,1,B02104P,Kuningan Media,-6.208989,106.83039,0,2023-04-15 09:00:00,B02756P,Perpustakaan Umum Daerah,-6.222302,106.83261,6.0,4/15/2023 10:27,20000.0
OGFU724O3L08FB,4914530000000.0,online,Reza Hutasoit,F,2007,JAK.12,Tanah Abang - Kebayoran Lama via Pos Pengumben,1,B03367P,SDN Grogol Selatan 01,-6.229143,106.7787,5,2023-04-15 07:07:00,B04978P,Simpang Madrasah I Panjang Arteri,-6.215609,106.77444,27.0,4/15/2023 8:14,0.0
ACRV079V2S05SS,589394000000.0,flazz,Harja Nashiruddin,M,1992,JAK.80,Rawa Buaya - Rawa Kompeni,0,B03834P,Sbr. Jln. Sawah Mede I,-6.098023,106.70824,37,2023-04-15 09:49:00,B03670P,Sbr. Jln. Cambela Permai,-6.097476,106.69996,40.0,4/15/2023 11:07,0.0
PUSK603E4Y83HP,3518080000000000.0,dki,Cinta Prabowo,F,2003,,,1,B00795P,Imperium,-6.210363,106.83059,2,2023-04-15 16:52:00,B06073P,SPBU Limo Cinere 1,-6.343161,106.77878,16.0,4/15/2023 18:42,20000.0
KWEL949M6A64EK,2712380000000000.0,dki,Cager Hutapea,M,1963,,,0,P00030,Cawang Ciliwung Arah Timur,-6.243012,106.86354,4,2023-04-15 09:24:00,B00613P,Gempol,-6.30729,106.89415,20.0,4/15/2023 9:49,3500.0
MPLH264L1F60MS,4.91126e+18,brizzi,Edward Puspita,F,1965,,,1,B05160P,Simpang Sulaiman Rawa Belong,-6.20609,106.78269,10,2023-04-15 13:33:00,,,,,,,0.0
ONIL136X6E77IG,3508290000000000.0,dki,Rahman Sihombing,F,1982,JAK.75,Cililitan - Kp. Pulo,0,B00256P,Cililitan Besar 2,-6.263478,106.86694,14,2023-04-15 08:43:00,B01724P,Jasa Marga Cililitan 2,-6.264703,106.87224,19.0,4/15/2023 10:37,0.0
OCTL064K9R67DR,4153240000000.0,online,R.A. Nurul Rajata,F,1996,D31,Cinere - Kuningan,1,B02756P,Perpustakaan Umum Daerah,-6.222302,106.83261,7,2023-04-15 06:37:00,B06644P,Gerbang Tol Brigif,-6.343523,106.79725,12.0,4/15/2023 7:51,20000.0
WWCM063H0U17BK,4446630000000000.0,dki,KH. Baktianto Permata,F,1987,JAK.120,JIS - Terminal Muara Angke,0,B06563P,Sbr. Baywalk 2,-6.110582,106.77963,38,2023-04-15 13:14:00,B06564P,Sbr. Baywalk 1,-6.110098,106.77832,39.0,4/15/2023 13:59,0.0
MVUR347Z8E98ZX,30490200000000.0,bni,Raisa Lailasari,M,2002,8K,Batusari - Grogol,1,B03034P,Pusdiklat Pajak Jln. Sakti IV,-6.188239,106.78441,14,2023-04-15 08:06:00,,YPI Al Huda Kb. Jeruk,-6.202423,106.76924,24.0,4/15/2023 9:55,3500.0
QCVW193K9B15DR,345775000000000.0,emoney,Prakosa Wijaya,F,1994,JAK.120,JIS - Terminal Muara Angke,1,B01404P,Jln. Mokmer 1,-6.149426,106.83966,30,2023-04-15 08:40:00,B05579P,Taman BMW,-6.125862,106.85843,42.0,4/15/2023 9:21,0.0
WJSK019H9E39QR,4637500000000000.0,dki,Jasmin Sinaga,M,1991,JAK.45,Lebak Bulus - Ragunan,1,B05721P,Term. Ragunan,-6.305594,106.8202,0,2023-04-15 16:39:00,B01937P,Kel. Pondok Labu,-6.306356,106.79867,31.0,4/15/2023 18:15,0.0
RAGG645M7D83HX,4563020000000000.0,dki,Gawati Hassanah,F,1996,12P,St. LRT Pegangsaan Dua - JIS,1,B03050P,Puskesmas Kelapa Gading,-6.157489,106.90703,13,2023-04-15 05:18:00,B01932P,Kel. Pegangsaan Dua,-6.1546,106.91056,14.0,4/15/2023 6:35,3500.0
VFMI693Z4K25IA,373741000000000.0,emoney,"Ir. Agnes Purnawati, S.Gz",M,1983,7B,Kampung Rambutan - Blok M,1,B01403P,Jln. Minyak Raya,-6.253372,106.83813,22,2023-04-15 06:10:00,B03173P,RS Restu Kasih,-6.26606,106.86598,34.0,4/15/2023 6:31,3500.0
TONQ124A9Q95LH,213132000000000.0,emoney,Novi Permadi,F,2012,M13,Puri Beta 2 - Tendean,0,P00242,Swadarma,-6.23755,106.76065,4,2023-04-15 13:20:00,P00221,Seskoal,-6.238064,106.77121,6.0,4/15/2023 15:10,3500.0
XDSB489W0G89YG,375793000000000.0,emoney,Rahmi Utami,M,1989,JAK.61,Cempaka Putih - Pulo Gadung via Kelapa Gading,1,B05077P,Simpang Pisok Giring Giring,-6.16936,106.90739,12,2023-04-15 20:39:00,B00166P,Boulevard Bukit Gading Raya,-6.15515,106.89579,27.0,4/15/2023 22:14,0.0
UJXN985K9R54MK,503844000000.0,flazz,Tantri Nasyidah,F,2003,JAK.74,Terminal Rawamangun - Cipinang Muara,0,B00769P,HKBP Rawamangun,-6.196463,106.88597,15,2023-04-15 20:37:00,B00924P,Jln. Belanak III Rawamangun,-6.202063,106.89159,18.0,4/15/2023 22:03,0.0
RRLM129Z3Y29NS,4304770000000000.0,dki,Ajeng Halim,F,1998,13B,Puri Beta - Pancoran Barat,1,P00221,Seskoal,-6.238064,106.77121,9,2023-04-15 20:15:00,P00242,Swadarma,-6.23755,106.76065,11.0,4/15/2023 20:32,3500.0
BXYE699U4V40EF,3588890000000000.0,dki,Michelle Pradipta,F,1995,M7B,BKN - Blok M,1,P00129,Mampang Prapatan,-6.242699,106.82572,14,2023-04-15 17:17:00,B05438P,St. Duren Kalibata 2,-6.256023,106.85547,29.0,4/15/2023 18:46,
CAGJ859U8U97TT,180001000000000.0,emoney,Catur Tamba,F,1993,M1,Blok M - Kota,1,P00256,MH Thamrin,-6.188149,106.82299,10,2023-04-15 10:00:00,P00017,Blok M,-6.243312,106.80175,21.0,4/15/2023 11:40,3500.0
OVDV334C9O48ZZ,6011380000000000.0,dki,"T. Lembah Waluyo, M.TI.",F,1984,,Pinang Ranti - Kampung Rambutan,1,B03508P,Sbr. Gg. Baru,-6.302783,106.91193,21,2023-04-15 05:40:00,B03392P,SDN Lubang Buaya 11,-6.294,106.90051,37.0,4/15/2023 7:01,0.0
KWAL901P6K77RG,4316200000000000.0,dki,Gaduh Nuraini,M,2000,T21,,0,B06911P,Senayan JCC 3,-6.208123,106.8042,6,2023-04-15 17:15:00,B06912P,Sbr. DPR MPR 1,-6.213577,106.808761,7.0,4/15/2023 17:37,20000.0
GAKI706W3M94GZ,630405000000.0,flazz,"Ajiman Nababan, S.H.",F,2005,11N,,0,B03745P,Sbr. Jln. Kapuk II,-6.215699,106.9002,3,2023-04-15 20:37:00,B00791P,Imigrasi Jaktim 1,-6.214787,106.88182,8.0,4/15/2023 22:24,0.0
EFXM579R2E61OD,675967000000.0,flazz,"Hj. Lintang Uyainah, S.E.I",M,1991,6P,Cibubur - Kuningan,1,B02104P,Kuningan Media,-6.208989,106.83039,1,2023-04-15 16:45:00,B00209P,Bulog,-6.237665,106.82917,14.0,4/15/2023 17:30,20000.0
YSHS583M9F79AA,378502000000000.0,emoney,Ir. Maida Sihombing,F,1995,12B,Pluit - Senen,1,B03369P,SDN Gunung Sahari 01,-6.166112,106.8417,3,2023-04-15 06:59:00,B02886P,Pluit 1,-6.115636,106.7909,43.0,4/15/2023 8:47,3500.0
XTLJ630S5Z03PX,180061000000000.0,emoney,Najwa Iswahyudi,M,1999,14,Jakarta International Stadium - Senen,0,B04788P,Simpang Danau Sunter Barat Utara,-6.140807,106.85704,6,2023-04-15 12:24:00,B00083P,Atrium 1,-6.177759,106.8412,17.0,4/15/2023 14:05,3500.0
LPXW892B7S29TO,3522740000000000.0,dki,Talia Mardhiyah,F,2009,JAK.43B,Tongtek - Tebet Eco Park (TEP) - Cililitan,0,B03995P,Sbr. Lapangan Blok O Pengadegan,-6.248518,106.85791,21,2023-04-15 11:44:00,B02621P,Ps. Kaget Pengadegan,-6.249871,106.85659,22.0,4/15/2023 13:39,0.0
DXLT457N7Q50JW,4.22176e+18,brizzi,"Lalita Susanti, M.TI.",M,1985,JAK.49,Lebak Bulus - Cipulir,1,B02003P,Kodam Bintaro,-6.25945,106.75871,35,2023-04-15 17:43:00,B02248P,Masjid Al Jihad Ulujami,-6.254771,106.76348,41.0,4/15/2023 18:53,0.0
PICA852P9L13HT,346408000000000.0,emoney,"Syahrini Wibisono, M.M.",F,2012,JAK.74,Terminal Rawamangun - Cipinang Muara,1,B03745P,Sbr. Jln. Kapuk II,-6.215699,106.9002,13,2023-04-15 14:28:00,B00579P,Gardu PLN Gotong Royong,-6.225352,106.89697,23.0,4/15/2023 15:14,0.0
XRGU867J7S09CE,346079000000000.0,emoney,Oliva Kuswoyo,F,1996,JAK.11,Tanah Abang - Kebayoran Lama,0,B02830P,Pharmin,-6.182988,106.81306,4,2023-04-15 20:44:00,B01322P,Jln. Limo Grogol Utara,-6.22506,106.77851,40.0,4/15/2023 21:58,0.0
JGWG848D8G31ER,349635000000000.0,emoney,Cawisadi Hartati,M,1993,3B,Rusun Flamboyan - Cengkareng,0,B04902P,Simpang Kapuk Cengkareng,-6.1343,106.73051,3,2023-04-15 09:24:00,B03073P,Ramayana Cengkareng,-6.153197,106.72803,12.0,4/15/2023 11:23,0.0
AACZ640K0C59SV,6011920000000000.0,dki,Cinthia Siregar,M,1966,6B,Ragunan - MH Thamrin via Semanggi,0,P00025,Bundaran HI,-6.193021,106.823,15,2023-04-15 18:38:00,P00256,MH Thamrin,-6.188149,106.82299,16.0,4/15/2023 19:16,3500.0
XRZV190R0B34BT,2248160000000000.0,dki,Opung Mansur,M,1949,5,Matraman Baru - Ancol,0,P00118,Kramat Sentiong,-6.18798,106.84595,6,2023-04-15 18:43:00,P00021,Budi Utomo,-6.166063,106.83906,9.0,4/15/2023 19:57,3500.0
XXOJ224A4L63LS,379347000000000.0,emoney,Lanang Hassanah,M,1979,JAK.03,Lebak Bulus - Andara,1,B02279P,Masjid At Taqwa H. Ipin,-6.311402,106.79278,7,2023-04-15 14:11:00,B04694P,Simpang Adiaksa,-6.298247,106.77454,19.0,4/15/2023 14:59,0.0
ZFOY650R3V44ZF,4483350000000000.0,dki,"Eka Hariyah, S.Ked",F,1976,JAK.48A,Stasiun Tebet - Rusun Karet Tengsin,0,B01205P,Jln. Karet Pasar Baru Barat I,-6.20469,106.8164,18,2023-04-15 08:16:00,B02995P,PU Irigasi,-6.201479,106.81079,20.0,4/15/2023 9:23,
KIEO855K8Q92JU,2260090000000000.0,dki,Maimunah Zulkarnain,M,2003,3B,Rusun Flamboyan - Cengkareng,0,B06299P,Jln. Kayu Besar Dalam,-6.122739,106.73129,2,2023-04-15 12:20:00,B02900P,Polsek Cengkareng 1,-6.146466,106.72881,9.0,4/15/2023 13:43,0.0
YUTY680K4J15JM,4400560000000.0,online,Pranata Irawan,F,1982,11N,Rusun Cipinang Muara - Jatinegara,0,B02159P,LP Cipinang,-6.214568,106.88574,6,2023-04-15 16:15:00,B00920P,Jln. Bekasi Timur I Jatinegara,-6.215457,106.87083,13.0,4/15/2023 17:10,0.0
QQRO343Q9O24AY,180093000000000.0,emoney,"Dr. Mariadi Laksita, S.Gz",F,2001,5M,Kampung Melayu - Tanah Abang via Cikini,1,B04101P,Sbr. MNC Center,-6.182744,106.83084,9,2023-04-15 08:31:00,B05350P,SMPN 14,-6.214718,106.86485,28.0,4/15/2023 9:18,3500.0
FPUG354E7L42LI,346595000000000.0,emoney,H. Balangga Dongoran,M,2006,11,,1,P00059,Flyover Radin Inten,-6.215982,106.92438,10,2023-04-15 20:34:00,P00270,Walikota Jakarta Timur,-6.21254,106.94537,13.0,4/15/2023 21:10,3500.0
LXWF988N6X71CH,3506000000000000.0,dki,Keisha Nasyiah,M,1965,11M,Rusun Rawa Bebek - Bukit Duri,1,P00270,Walikota Jakarta Timur,-6.21254,106.94537,13,2023-04-15 12:17:00,B03291P,Rusun Rawa Bebek,-6.196241,106.9658,14.0,4/15/2023 12:53,0.0
LRLL664M7I77MR,3546170000000000.0,dki,"Dr. Dwi Rahayu, M.Farm",M,1967,1F,Stasiun Palmerah - Bundaran Senayan,0,B05816P,TVRI,-6.213698,106.80086,2,2023-04-15 11:21:00,P00026,Bundaran Senayan,-6.227869,106.80094,6.0,4/15/2023 13:01,3500.0
FOHT292K5I34NM,4107780000000000.0,dki,dr. Maria Rajata,M,1994,D11,Depok - BKN,0,B00287P,D Mall,-6.387291,106.8273,2,2023-04-15 18:49:00,B02055P,Komplek Pelni,-6.380018,106.85409,9.0,4/15/2023 20:09,3500.0
MOCH942F9E25BM,502001000000.0,flazz,Garda Pudjiastuti,M,1988,13C,Puri Beta - Dukuh Atas,1,P00144,Pancoran Barat Arah Timur,-6.241571,106.83808,4,2023-04-15 11:39:00,P00096,JORR,-6.236104,106.75488,15.0,4/15/2023 11:56,3500.0
